{
"type": "FeatureCollection",
"name": "Burrow Tickets 2023",
"crs": { "type": "name", "properties": { "name": "urn:ogc:def:crs:OGC:1.3:CRS84" } },
"features": [
{ "type": "Feature", "properties": { "Street Address": "98 PEARL ST", "City": "Somerville", "State": "MA", "Country": "United States", "result_num": "0", "osm_id": "29537673", "display_name": "98, Pearl Street, East Somerville, Somerville, Middlesex County, Massachusetts, 02145, United States", "category": "building", "type": "yes", "latlong": "42.384922450000005,-71.08590724999999" }, "geometry": { "type": "Point", "coordinates": [ -71.08590725, 42.38492245 ] } },
{ "type": "Feature", "properties": { "Street Address": "69 BROMFIELD RD", "City": "Somerville", "State": "MA", "Country": "United States", "result_num": "0", "osm_id": "29586252", "display_name": "69, Bromfield Road, Ball Square, Somerville, Middlesex County, Massachusetts, 02144, United States", "category": "building", "type": "yes", "latlong": "42.40365625,-71.11615775" }, "geometry": { "type": "Point", "coordinates": [ -71.11615775, 42.40365625 ] } },
{ "type": "Feature", "properties": { "Street Address": "34 IBBETSON ST", "City": "Somerville", "State": "MA", "Country": "United States", "result_num": "0", "osm_id": "29792779", "display_name": "34, Ibbetson Street, Wilson Square, Somerville, Middlesex County, Massachusetts, 02143, United States", "category": "building", "type": "yes", "latlong": "42.38596575,-71.11176443914613" }, "geometry": { "type": "Point", "coordinates": [ -71.111764439146128, 42.38596575 ] } },
{ "type": "Feature", "properties": { "Street Address": "25 STONE AVE", "City": "Somerville", "State": "MA", "Country": "United States", "result_num": "0", "osm_id": "29746187", "display_name": "25;27, Stone Avenue, Union Square, Somerville, Middlesex County, Massachusetts, 02143, United States", "category": "building", "type": "semidetached_house", "latlong": "42.3804586,-71.09504267647773" }, "geometry": { "type": "Point", "coordinates": [ -71.095042676477732, 42.3804586 ] } },
{ "type": "Feature", "properties": { "Street Address": "16 BEACON ST", "City": "Somerville", "State": "MA", "Country": "United States", "result_num": "0", "osm_id": "89184286", "display_name": "Walgreens, 16, Beacon Street, Union Square, Somerville, Middlesex County, Massachusetts, 02143, United States", "category": "amenity", "type": "pharmacy", "latlong": "42.3747855,-71.10266251603522" }, "geometry": { "type": "Point", "coordinates": [ -71.102662516035224, 42.3747855 ] } },
{ "type": "Feature", "properties": { "Street Address": "21 CRAIGIE ST", "City": "Somerville", "State": "MA", "Country": "United States", "result_num": "0", "osm_id": "29532276", "display_name": "21, Craigie Street, Wilson Square, Somerville, Middlesex County, Massachusetts, 02143, United States", "category": "building", "type": "yes", "latlong": "42.3859622,-71.11213310109926" }, "geometry": { "type": "Point", "coordinates": [ -71.112133101099261, 42.3859622 ] } },
{ "type": "Feature", "properties": { "Street Address": "64 COLLEGE AVE", "City": "Somerville", "State": "MA", "Country": "United States", "result_num": "0", "osm_id": "358279244", "display_name": "Korean Methodist Church, 64, College Avenue, West Somerville, Somerville, Middlesex County, Massachusetts, 02144, United States", "category": "amenity", "type": "place_of_worship", "latlong": "42.3987941,-71.1211861" }, "geometry": { "type": "Point", "coordinates": [ -71.1211861, 42.3987941 ] } },
{ "type": "Feature", "properties": { "Street Address": "7 MAINE AVE", "City": "Somerville", "State": "MA", "Country": "United States", "result_num": "0", "osm_id": "29931837", "display_name": "5;7, Maine Avenue, East Somerville, Somerville, Middlesex County, Massachusetts, 02145, United States", "category": "building", "type": "apartments", "latlong": "42.38864685,-71.08138435509957" }, "geometry": { "type": "Point", "coordinates": [ -71.081384355099573, 42.38864685 ] } },
{ "type": "Feature", "properties": { "Street Address": "117 WASHINGTON ST", "City": "Somerville", "State": "MA", "Country": "United States", "result_num": "0", "osm_id": "29537827", "display_name": "117, Washington Street, Brickbottom, Somerville, Middlesex County, Massachusetts, 02145, United States", "category": "building", "type": "yes", "latlong": "42.381311499999995,-71.0871097314301" }, "geometry": { "type": "Point", "coordinates": [ -71.087109731430104, 42.3813115 ] } },
{ "type": "Feature", "properties": { "Street Address": "58 SCHOOL ST", "City": "Somerville", "State": "MA", "Country": "United States", "result_num": "0", "osm_id": "29938389", "display_name": "58, School Street, Union Square, Somerville, Middlesex County, Massachusetts, 02143, United States", "category": "building", "type": "yes", "latlong": "42.384187,-71.10075234702751" }, "geometry": { "type": "Point", "coordinates": [ -71.100752347027509, 42.384187 ] } },
{ "type": "Feature", "properties": { "Street Address": "54 MOUNT VERNON ST", "City": "Somerville", "State": "MA", "Country": "United States", "result_num": "0", "osm_id": "29933596", "display_name": "54, Mount Vernon Street, East Somerville, Somerville, Middlesex County, Massachusetts, 02145, United States", "category": "building", "type": "apartments", "latlong": "42.383962249999996,-71.08023265580808" }, "geometry": { "type": "Point", "coordinates": [ -71.080232655808075, 42.38396225 ] } },
{ "type": "Feature", "properties": { "Street Address": "97 GILMAN ST", "City": "Somerville", "State": "MA", "Country": "United States", "result_num": "0", "osm_id": "29519927", "display_name": "97, Gilman Street, Prospect Hill, Somerville, Middlesex County, Massachusetts, 02145, United States", "category": "building", "type": "yes", "latlong": "42.38644635,-71.0927333294602" }, "geometry": { "type": "Point", "coordinates": [ -71.092733329460202, 42.38644635 ] } },
{ "type": "Feature", "properties": { "Street Address": "5 HOMER SQ", "City": "Somerville", "State": "MA", "Country": "United States", "result_num": "0", "osm_id": "29537850", "display_name": "5;6;7;8, Homer Square, Prospect Hill, Somerville, Middlesex County, Massachusetts, 02143, United States", "category": "building", "type": "yes", "latlong": "42.380771800000005,-71.09441434878212" }, "geometry": { "type": "Point", "coordinates": [ -71.094414348782124, 42.3807718 ] } },
{ "type": "Feature", "properties": { "Street Address": "7 CRAIGIE ST", "City": "Somerville", "State": "MA", "Country": "United States", "result_num": "0", "osm_id": "29634475", "display_name": "7, Craigie Street, Wilson Square, Somerville, Middlesex County, Massachusetts, 02143, United States", "category": "building", "type": "yes", "latlong": "42.3854822,-71.11243055524318" }, "geometry": { "type": "Point", "coordinates": [ -71.112430555243179, 42.3854822 ] } },
{ "type": "Feature", "properties": { "Street Address": "17A EVERETT ST", "City": "Somerville", "State": "MA", "Country": "United States", "result_num": "0", "osm_id": "29821434", "display_name": "17;17A;17B;19A;19B, Everett Street, Union Square, Somerville, Middlesex County, Massachusetts, 02143, United States", "category": "building", "type": "apartments", "latlong": "42.378608,-71.09514121814058" }, "geometry": { "type": "Point", "coordinates": [ -71.095141218140583, 42.378608 ] } },
{ "type": "Feature", "properties": { "Street Address": "2 UNION SQ", "City": "Somerville", "State": "MA", "Country": "United States", "result_num": "0", "osm_id": "11134295488", "display_name": "2, Union Square, Somerville, Middlesex County, Massachusetts, 02143, United States", "category": "tourism", "type": "artwork", "latlong": "42.3792143,-71.095142" }, "geometry": { "type": "Point", "coordinates": [ -71.095142, 42.3792143 ] } },
{ "type": "Feature", "properties": { "Street Address": "89 CENTRAL ST", "City": "Somerville", "State": "MA", "Country": "United States", "result_num": "0", "osm_id": "29634523", "display_name": "89, Central Street, Spring Hill, Somerville, Middlesex County, Massachusetts, 02143, United States", "category": "building", "type": "yes", "latlong": "42.388793750000005,-71.10292605217052" }, "geometry": { "type": "Point", "coordinates": [ -71.102926052170517, 42.38879375 ] } },
{ "type": "Feature", "properties": { "Street Address": "5 EVERETT AVE", "City": "Somerville", "State": "MA", "Country": "United States", "result_num": "0", "osm_id": "29642419", "display_name": "5;7, Everett Avenue, East Somerville, Somerville, Middlesex County, Massachusetts, 02145, United States", "category": "building", "type": "yes", "latlong": "42.38675295,-71.0877632309722" }, "geometry": { "type": "Point", "coordinates": [ -71.0877632309722, 42.38675295 ] } },
{ "type": "Feature", "properties": { "Street Address": "53 CHESTER ST", "City": "Somerville", "State": "MA", "Country": "United States", "result_num": "0", "osm_id": "29682700", "display_name": "53, Chester Street, Davis Square, Somerville, Middlesex County, Massachusetts, 02140, United States", "category": "building", "type": "apartments", "latlong": "42.39512015,-71.12247051843454" }, "geometry": { "type": "Point", "coordinates": [ -71.12247051843454, 42.39512015 ] } },
{ "type": "Feature", "properties": { "Street Address": "34 IBBETSON ST", "City": "Somerville", "State": "MA", "Country": "United States", "result_num": "0", "osm_id": "29792779", "display_name": "34, Ibbetson Street, Wilson Square, Somerville, Middlesex County, Massachusetts, 02143, United States", "category": "building", "type": "yes", "latlong": "42.38596575,-71.11176443914613" }, "geometry": { "type": "Point", "coordinates": [ -71.111764439146128, 42.38596575 ] } },
{ "type": "Feature", "properties": { "Street Address": "11 HIGHLAND AVE", "City": "Somerville", "State": "MA", "Country": "United States", "result_num": "0", "osm_id": "2547125302", "display_name": "Salon Villa Francesca, 11, Highland Avenue, Spring Hill, Somerville, Middlesex County, Massachusetts, 02143, United States", "category": "shop", "type": "hairdresser", "latlong": "42.384811,-71.0929142" }, "geometry": { "type": "Point", "coordinates": [ -71.0929142, 42.384811 ] } },
{ "type": "Feature", "properties": { "Street Address": "5 COONEY ST", "City": "Somerville", "State": "MA", "Country": "United States", "result_num": "0", "osm_id": "29727122", "display_name": "5, Cooney Street, Union Square, Somerville, Middlesex County, Massachusetts, 02143, United States", "category": "building", "type": "yes", "latlong": "42.37613585,-71.10425501187498" }, "geometry": { "type": "Point", "coordinates": [ -71.104255011874983, 42.37613585 ] } },
{ "type": "Feature", "properties": { "Street Address": "12 BUCKINGHAM ST", "City": "Somerville", "State": "MA", "Country": "United States", "result_num": "0", "osm_id": "29532845", "display_name": "12, Buckingham Street, Union Square, Somerville, Middlesex County, Massachusetts, 02143, United States", "category": "building", "type": "yes", "latlong": "42.37654415,-71.1034053" }, "geometry": { "type": "Point", "coordinates": [ -71.1034053, 42.37654415 ] } },
{ "type": "Feature", "properties": { "Street Address": "110 CENTRAL ST", "City": "Somerville", "State": "MA", "Country": "United States", "result_num": "0", "osm_id": "1186126099", "display_name": "110, Central Street, Winter Hill, Somerville, Middlesex County, Massachusetts, 02143, United States", "category": "place", "type": "house", "latlong": "42.389992,-71.102444" }, "geometry": { "type": "Point", "coordinates": [ -71.102444, 42.389992 ] } },
{ "type": "Feature", "properties": { "Street Address": "18 SARGENT AVE", "City": "Somerville", "State": "MA", "Country": "United States", "result_num": "0", "osm_id": "29537451", "display_name": "18, Sargent Avenue, Ten Hills, Somerville, Middlesex County, Massachusetts, 02145, United States", "category": "building", "type": "yes", "latlong": "42.3906971,-71.09291056134307" }, "geometry": { "type": "Point", "coordinates": [ -71.092910561343075, 42.3906971 ] } },
{ "type": "Feature", "properties": { "Street Address": "322 BROADWAY", "City": "Somerville", "State": "MA", "Country": "United States", "result_num": "0", "osm_id": "426575222", "display_name": "322, Broadway, Winter Hill, Somerville, Middlesex County, Massachusetts, 02145, United States", "category": "place", "type": "house", "latlong": "42.392968582761775,-71.0937528052558" }, "geometry": { "type": "Point", "coordinates": [ -71.093752805255804, 42.392968582761775 ] } },
{ "type": "Feature", "properties": { "Street Address": "33 WHEATLAND ST", "City": "Somerville", "State": "MA", "Country": "United States", "result_num": "0", "osm_id": "29642247", "display_name": "31;33, Wheatland Street, Ten Hills, Somerville, Middlesex County, Massachusetts, 02145, United States", "category": "building", "type": "yes", "latlong": "42.392070700000005,-71.08957986870195" }, "geometry": { "type": "Point", "coordinates": [ -71.089579868701946, 42.3920707 ] } },
{ "type": "Feature", "properties": { "Street Address": "59 BOW ST", "City": "Somerville", "State": "MA", "Country": "United States", "result_num": "0", "osm_id": "29738099", "display_name": "59, Bow Street, Union Square, Somerville, Middlesex County, Massachusetts, 02143, United States", "category": "building", "type": "residential", "latlong": "42.38166635,-71.0992364764864" }, "geometry": { "type": "Point", "coordinates": [ -71.099236476486396, 42.38166635 ] } },
{ "type": "Feature", "properties": { "Street Address": "50 MIDDLESEX AVE", "City": "Somerville", "State": "MA", "Country": "United States", "result_num": "0", "osm_id": "29739175", "display_name": "50, Middlesex Avenue, Ten Hills, Somerville, Middlesex County, Massachusetts, 02145, United States", "category": "building", "type": "yes", "latlong": "42.3923094,-71.08327954966983" }, "geometry": { "type": "Point", "coordinates": [ -71.083279549669825, 42.3923094 ] } },
{ "type": "Feature", "properties": { "Street Address": "12 BUCKINGHAM ST", "City": "Somerville", "State": "MA", "Country": "United States", "result_num": "0", "osm_id": "29532845", "display_name": "12, Buckingham Street, Union Square, Somerville, Middlesex County, Massachusetts, 02143, United States", "category": "building", "type": "yes", "latlong": "42.37654415,-71.1034053" }, "geometry": { "type": "Point", "coordinates": [ -71.1034053, 42.37654415 ] } },
{ "type": "Feature", "properties": { "Street Address": "69 BROMFIELD RD", "City": "Somerville", "State": "MA", "Country": "United States", "result_num": "0", "osm_id": "29586252", "display_name": "69, Bromfield Road, Ball Square, Somerville, Middlesex County, Massachusetts, 02144, United States", "category": "building", "type": "yes", "latlong": "42.40365625,-71.11615775" }, "geometry": { "type": "Point", "coordinates": [ -71.11615775, 42.40365625 ] } },
{ "type": "Feature", "properties": { "Street Address": "34 IBBETSON ST", "City": "Somerville", "State": "MA", "Country": "United States", "result_num": "0", "osm_id": "29792779", "display_name": "34, Ibbetson Street, Wilson Square, Somerville, Middlesex County, Massachusetts, 02143, United States", "category": "building", "type": "yes", "latlong": "42.38596575,-71.11176443914613" }, "geometry": { "type": "Point", "coordinates": [ -71.111764439146128, 42.38596575 ] } },
{ "type": "Feature", "properties": { "Street Address": "16 BEACON ST", "City": "Somerville", "State": "MA", "Country": "United States", "result_num": "0", "osm_id": "89184286", "display_name": "Walgreens, 16, Beacon Street, Union Square, Somerville, Middlesex County, Massachusetts, 02143, United States", "category": "amenity", "type": "pharmacy", "latlong": "42.3747855,-71.10266251603522" }, "geometry": { "type": "Point", "coordinates": [ -71.102662516035224, 42.3747855 ] } },
{ "type": "Feature", "properties": { "Street Address": "21 CRAIGIE ST", "City": "Somerville", "State": "MA", "Country": "United States", "result_num": "0", "osm_id": "29532276", "display_name": "21, Craigie Street, Wilson Square, Somerville, Middlesex County, Massachusetts, 02143, United States", "category": "building", "type": "yes", "latlong": "42.3859622,-71.11213310109926" }, "geometry": { "type": "Point", "coordinates": [ -71.112133101099261, 42.3859622 ] } },
{ "type": "Feature", "properties": { "Street Address": "64 COLLEGE AVE", "City": "Somerville", "State": "MA", "Country": "United States", "result_num": "0", "osm_id": "358279244", "display_name": "Korean Methodist Church, 64, College Avenue, West Somerville, Somerville, Middlesex County, Massachusetts, 02144, United States", "category": "amenity", "type": "place_of_worship", "latlong": "42.3987941,-71.1211861" }, "geometry": { "type": "Point", "coordinates": [ -71.1211861, 42.3987941 ] } },
{ "type": "Feature", "properties": { "Street Address": "5 HOMER SQ", "City": "Somerville", "State": "MA", "Country": "United States", "result_num": "0", "osm_id": "29537850", "display_name": "5;6;7;8, Homer Square, Prospect Hill, Somerville, Middlesex County, Massachusetts, 02143, United States", "category": "building", "type": "yes", "latlong": "42.380771800000005,-71.09441434878212" }, "geometry": { "type": "Point", "coordinates": [ -71.094414348782124, 42.3807718 ] } },
{ "type": "Feature", "properties": { "Street Address": "97 GILMAN ST", "City": "Somerville", "State": "MA", "Country": "United States", "result_num": "0", "osm_id": "29519927", "display_name": "97, Gilman Street, Prospect Hill, Somerville, Middlesex County, Massachusetts, 02145, United States", "category": "building", "type": "yes", "latlong": "42.38644635,-71.0927333294602" }, "geometry": { "type": "Point", "coordinates": [ -71.092733329460202, 42.38644635 ] } },
{ "type": "Feature", "properties": { "Street Address": "11 HIGHLAND AVE", "City": "Somerville", "State": "MA", "Country": "United States", "result_num": "0", "osm_id": "2547125302", "display_name": "Salon Villa Francesca, 11, Highland Avenue, Spring Hill, Somerville, Middlesex County, Massachusetts, 02143, United States", "category": "shop", "type": "hairdresser", "latlong": "42.384811,-71.0929142" }, "geometry": { "type": "Point", "coordinates": [ -71.0929142, 42.384811 ] } },
{ "type": "Feature", "properties": { "Street Address": "33 WHEATLAND ST", "City": "Somerville", "State": "MA", "Country": "United States", "result_num": "0", "osm_id": "29642247", "display_name": "31;33, Wheatland Street, Ten Hills, Somerville, Middlesex County, Massachusetts, 02145, United States", "category": "building", "type": "yes", "latlong": "42.392070700000005,-71.08957986870195" }, "geometry": { "type": "Point", "coordinates": [ -71.089579868701946, 42.3920707 ] } },
{ "type": "Feature", "properties": { "Street Address": "53 CHESTER ST", "City": "Somerville", "State": "MA", "Country": "United States", "result_num": "0", "osm_id": "29682700", "display_name": "53, Chester Street, Davis Square, Somerville, Middlesex County, Massachusetts, 02140, United States", "category": "building", "type": "apartments", "latlong": "42.39512015,-71.12247051843454" }, "geometry": { "type": "Point", "coordinates": [ -71.12247051843454, 42.39512015 ] } },
{ "type": "Feature", "properties": { "Street Address": "34 IBBETSON ST", "City": "Somerville", "State": "MA", "Country": "United States", "result_num": "0", "osm_id": "29792779", "display_name": "34, Ibbetson Street, Wilson Square, Somerville, Middlesex County, Massachusetts, 02143, United States", "category": "building", "type": "yes", "latlong": "42.38596575,-71.11176443914613" }, "geometry": { "type": "Point", "coordinates": [ -71.111764439146128, 42.38596575 ] } },
{ "type": "Feature", "properties": { "Street Address": "34 IBBETSON ST", "City": "Somerville", "State": "MA", "Country": "United States", "result_num": "0", "osm_id": "29792779", "display_name": "34, Ibbetson Street, Wilson Square, Somerville, Middlesex County, Massachusetts, 02143, United States", "category": "building", "type": "yes", "latlong": "42.38596575,-71.11176443914613" }, "geometry": { "type": "Point", "coordinates": [ -71.111764439146128, 42.38596575 ] } },
{ "type": "Feature", "properties": { "Street Address": "21 CRAIGIE ST", "City": "Somerville", "State": "MA", "Country": "United States", "result_num": "0", "osm_id": "29532276", "display_name": "21, Craigie Street, Wilson Square, Somerville, Middlesex County, Massachusetts, 02143, United States", "category": "building", "type": "yes", "latlong": "42.3859622,-71.11213310109926" }, "geometry": { "type": "Point", "coordinates": [ -71.112133101099261, 42.3859622 ] } },
{ "type": "Feature", "properties": { "Street Address": "11 HIGHLAND AVE", "City": "Somerville", "State": "MA", "Country": "United States", "result_num": "0", "osm_id": "2547125302", "display_name": "Salon Villa Francesca, 11, Highland Avenue, Spring Hill, Somerville, Middlesex County, Massachusetts, 02143, United States", "category": "shop", "type": "hairdresser", "latlong": "42.384811,-71.0929142" }, "geometry": { "type": "Point", "coordinates": [ -71.0929142, 42.384811 ] } },
{ "type": "Feature", "properties": { "Street Address": "11 HIGHLAND AVE", "City": "Somerville", "State": "MA", "Country": "United States", "result_num": "0", "osm_id": "2547125302", "display_name": "Salon Villa Francesca, 11, Highland Avenue, Spring Hill, Somerville, Middlesex County, Massachusetts, 02143, United States", "category": "shop", "type": "hairdresser", "latlong": "42.384811,-71.0929142" }, "geometry": { "type": "Point", "coordinates": [ -71.0929142, 42.384811 ] } },
{ "type": "Feature", "properties": { "Street Address": "11 HIGHLAND AVE", "City": "Somerville", "State": "MA", "Country": "United States", "result_num": "0", "osm_id": "2547125302", "display_name": "Salon Villa Francesca, 11, Highland Avenue, Spring Hill, Somerville, Middlesex County, Massachusetts, 02143, United States", "category": "shop", "type": "hairdresser", "latlong": "42.384811,-71.0929142" }, "geometry": { "type": "Point", "coordinates": [ -71.0929142, 42.384811 ] } },
{ "type": "Feature", "properties": { "Street Address": "141 WALNUT ST", "City": "Somerville", "State": "MA", "Country": "United States", "result_num": "0", "osm_id": "29745662", "display_name": "141, Walnut Street, Prospect Hill, Somerville, Middlesex County, Massachusetts, 02145, United States", "category": "building", "type": "yes", "latlong": "42.38879335,-71.09210020250363" }, "geometry": { "type": "Point", "coordinates": [ -71.09210020250363, 42.38879335 ] } },
{ "type": "Feature", "properties": { "Street Address": "15 TAYLOR ST", "City": "Somerville", "State": "MA", "Country": "United States", "result_num": "0", "osm_id": "29642177", "display_name": "15, Taylor Street, Ten Hills, Somerville, Middlesex County, Massachusetts, 02145, United States", "category": "building", "type": "yes", "latlong": "42.39473625,-71.08878620800152" }, "geometry": { "type": "Point", "coordinates": [ -71.088786208001522, 42.39473625 ] } }
]
}
