{
"type": "FeatureCollection",
"name": "Comm Trash Tickets 2023",
"crs": { "type": "name", "properties": { "name": "urn:ogc:def:crs:OGC:1.3:CRS84" } },
"features": [
{ "type": "Feature", "properties": { "Street Address": "236 ELM ST", "City": "Somerville ", "State": "MA", "Country": "United States ", "result_num": "0", "osm_id": "6093964495", "display_name": "Kong Dog, 236, Elm Street, Davis Square, Somerville, Middlesex County, Massachusetts, 02144, United States", "category": "amenity", "type": "cafe", "latlong": "42.3948298,-71.121685" }, "geometry": { "type": "Point", "coordinates": [ -71.121685, 42.3948298 ] } },
{ "type": "Feature", "properties": { "Street Address": "310 BROADWAY", "City": "Somerville ", "State": "MA", "Country": "United States ", "result_num": "0", "osm_id": "426575222", "display_name": "310, Broadway, Winter Hill, Somerville, Middlesex County, Massachusetts, 02145, United States", "category": "place", "type": "house", "latlong": "42.39287110689791,-71.09354377368106" }, "geometry": { "type": "Point", "coordinates": [ -71.093543773681063, 42.392871106897907 ] } },
{ "type": "Feature", "properties": { "Street Address": "16 BEACON ST", "City": "Somerville ", "State": "MA", "Country": "United States ", "result_num": "0", "osm_id": "89184286", "display_name": "Walgreens, 16, Beacon Street, Union Square, Somerville, Middlesex County, Massachusetts, 02143, United States", "category": "amenity", "type": "pharmacy", "latlong": "42.3747855,-71.10266251603522" }, "geometry": { "type": "Point", "coordinates": [ -71.102662516035224, 42.3747855 ] } },
{ "type": "Feature", "properties": { "Street Address": "404 BROADWAY", "City": "Somerville ", "State": "MA", "Country": "United States ", "result_num": "0", "osm_id": "1112175803", "display_name": "404, Broadway, Magoun Square, Somerville, Middlesex County, Massachusetts, 02143, United States", "category": "place", "type": "house", "latlong": "42.3966666875,-71.10251925" }, "geometry": { "type": "Point", "coordinates": [ -71.10251925, 42.396666687500002 ] } },
{ "type": "Feature", "properties": { "Street Address": "91 PROSPECT ST", "City": "Somerville ", "State": "MA", "Country": "United States ", "result_num": "0", "osm_id": "29520686", "display_name": "91, Prospect Street, Wellington-Harrington, East Cambridge, Somerville, Middlesex County, Massachusetts, 02143, United States", "category": "building", "type": "yes", "latlong": "42.37574065,-71.09677575973339" }, "geometry": { "type": "Point", "coordinates": [ -71.09677575973339, 42.37574065 ] } },
{ "type": "Feature", "properties": { "Street Address": "185 WASHINGTON ST", "City": "Somerville ", "State": "MA", "Country": "United States ", "result_num": "0", "osm_id": "1113559463", "display_name": "185, Washington Street, Prospect Hill, Somerville, Middlesex County, Massachusetts, 02143, United States", "category": "place", "type": "house", "latlong": "42.37986588888889,-71.09095677777778" }, "geometry": { "type": "Point", "coordinates": [ -71.090956777777777, 42.379865888888887 ] } },
{ "type": "Feature", "properties": { "Street Address": "101 HIGHLAND AVE", "City": "Somerville ", "State": "MA", "Country": "United States ", "result_num": "0", "osm_id": "29537595", "display_name": "YMCA, 101, Highland Avenue, Spring Hill, Somerville, Middlesex County, Massachusetts, 02143, United States", "category": "building", "type": "yes", "latlong": "42.3873497,-71.09918812121946" }, "geometry": { "type": "Point", "coordinates": [ -71.099188121219456, 42.3873497 ] } },
{ "type": "Feature", "properties": { "Street Address": "16 BEACON ST", "City": "Somerville ", "State": "MA", "Country": "United States ", "result_num": "0", "osm_id": "89184286", "display_name": "Walgreens, 16, Beacon Street, Union Square, Somerville, Middlesex County, Massachusetts, 02143, United States", "category": "amenity", "type": "pharmacy", "latlong": "42.3747855,-71.10266251603522" }, "geometry": { "type": "Point", "coordinates": [ -71.102662516035224, 42.3747855 ] } },
{ "type": "Feature", "properties": { "Street Address": "285 HIGHLAND AVE", "City": "Somerville ", "State": "MA", "Country": "United States ", "result_num": "0", "osm_id": "29633202", "display_name": "285, Highland Avenue, Spring Hill, Somerville, Middlesex County, Massachusetts, 02144, United States", "category": "building", "type": "retail", "latlong": "42.392297549999995,-71.11214723654459" }, "geometry": { "type": "Point", "coordinates": [ -71.112147236544587, 42.39229755 ] } },
{ "type": "Feature", "properties": { "Street Address": "185 BEACON ST", "City": "Somerville ", "State": "MA", "Country": "United States ", "result_num": "0", "osm_id": "29529985", "display_name": "185,187, Beacon Street, Wilson Square, Somerville, Middlesex County, Massachusetts, 02143, United States", "category": "building", "type": "detached", "latlong": "42.38020925,-71.10837509785728" }, "geometry": { "type": "Point", "coordinates": [ -71.108375097857277, 42.38020925 ] } },
{ "type": "Feature", "properties": { "Street Address": "62 HIGHLAND AVE", "City": "Somerville ", "State": "MA", "Country": "United States ", "result_num": "0", "osm_id": "29642461", "display_name": "62, Highland Avenue, Spring Hill, Somerville, Middlesex County, Massachusetts, 02143, United States", "category": "building", "type": "yes", "latlong": "42.3855958,-71.0958716004748" }, "geometry": { "type": "Point", "coordinates": [ -71.095871600474794, 42.3855958 ] } },
{ "type": "Feature", "properties": { "Street Address": "40 WHITE ST", "City": "Somerville ", "State": "MA", "Country": "United States ", "result_num": "0", "osm_id": "29792242", "display_name": "40, White Street, Avon Hill, Somerville, Middlesex County, Massachusetts, 02144, United States", "category": "building", "type": "retail", "latlong": "42.38911485,-71.1176579884418" }, "geometry": { "type": "Point", "coordinates": [ -71.117657988441806, 42.38911485 ] } },
{ "type": "Feature", "properties": { "Street Address": "88 BROADWAY", "City": "Somerville ", "State": "MA", "Country": "United States ", "result_num": "0", "osm_id": "29792028", "display_name": "88, Broadway, East Somerville, Somerville, Middlesex County, Massachusetts, 02145, United States", "category": "building", "type": "retail", "latlong": "42.387074299999995,-71.08262767724004" }, "geometry": { "type": "Point", "coordinates": [ -71.08262767724004, 42.3870743 ] } },
{ "type": "Feature", "properties": { "Street Address": "1157 BROADWAY", "City": "Somerville ", "State": "MA", "Country": "United States ", "result_num": "0", "osm_id": "4545700388", "display_name": "Broadway Eatery, 1157, Broadway, Teele Square, Somerville, Middlesex County, Massachusetts, 02144, United States", "category": "amenity", "type": "restaurant", "latlong": "42.4035022,-71.1274467" }, "geometry": { "type": "Point", "coordinates": [ -71.1274467, 42.4035022 ] } },
{ "type": "Feature", "properties": { "Street Address": "852 BROADWAY", "City": "Somerville ", "State": "MA", "Country": "United States ", "result_num": "0", "osm_id": "1114795419", "display_name": "852, Broadway, Ball Square, Somerville, Middlesex County, Massachusetts, 02144, United States", "category": "place", "type": "house", "latlong": "42.40092693542402,-71.11766656137739" }, "geometry": { "type": "Point", "coordinates": [ -71.117666561377391, 42.400926935424017 ] } },
{ "type": "Feature", "properties": { "Street Address": "355 BROADWAY", "City": "Somerville ", "State": "MA", "Country": "United States ", "result_num": "0", "osm_id": "29937349", "display_name": "355, Broadway, Winter Hill, Somerville, Middlesex County, Massachusetts, 02145, United States", "category": "building", "type": "apartments", "latlong": "42.39391275,-71.09528699962239" }, "geometry": { "type": "Point", "coordinates": [ -71.095286999622388, 42.39391275 ] } },
{ "type": "Feature", "properties": { "Street Address": "78 BROADWAY", "City": "Somerville ", "State": "MA", "Country": "United States ", "result_num": "0", "osm_id": "156991946", "display_name": "Bairos Liquors, 78, Broadway, East Somerville, Somerville, Middlesex County, Massachusetts, 02145, United States", "category": "shop", "type": "alcohol", "latlong": "42.38693275,-71.08195951717747" }, "geometry": { "type": "Point", "coordinates": [ -71.081959517177467, 42.38693275 ] } },
{ "type": "Feature", "properties": { "Street Address": "78 BROADWAY", "City": "Somerville ", "State": "MA", "Country": "United States ", "result_num": "0", "osm_id": "156991946", "display_name": "Bairos Liquors, 78, Broadway, East Somerville, Somerville, Middlesex County, Massachusetts, 02145, United States", "category": "shop", "type": "alcohol", "latlong": "42.38693275,-71.08195951717747" }, "geometry": { "type": "Point", "coordinates": [ -71.081959517177467, 42.38693275 ] } },
{ "type": "Feature", "properties": { "Street Address": "74 BROADWAY", "City": "Somerville ", "State": "MA", "Country": "United States ", "result_num": "0", "osm_id": "29936286", "display_name": "74;76, Broadway, East Somerville, Somerville, Middlesex County, Massachusetts, 02145, United States", "category": "building", "type": "retail", "latlong": "42.386838749999995,-71.08169646536828" }, "geometry": { "type": "Point", "coordinates": [ -71.081696465368282, 42.38683875 ] } },
{ "type": "Feature", "properties": { "Street Address": "1147 BROADWAY", "City": "Somerville ", "State": "MA", "Country": "United States ", "result_num": "0", "osm_id": "302110862", "display_name": "1147, Broadway, Teele Square, Somerville, Middlesex County, Massachusetts, 02144, United States", "category": "place", "type": "house", "latlong": "42.40327818181818,-71.12699075757575" }, "geometry": { "type": "Point", "coordinates": [ -71.126990757575754, 42.40327818181818 ] } },
{ "type": "Feature", "properties": { "Street Address": "594 SOMERVILLE AVE", "City": "Somerville ", "State": "MA", "Country": "United States ", "result_num": "0", "osm_id": "355792803", "display_name": "594 Somerville Ave, Somerville Avenue, Wilson Square, Somerville, Middlesex County, Massachusetts, 02143, United States", "category": "highway", "type": "bus_stop", "latlong": "42.383778,-71.109215" }, "geometry": { "type": "Point", "coordinates": [ -71.109215, 42.383778 ] } },
{ "type": "Feature", "properties": { "Street Address": "154 CEDAR ST", "City": "Somerville ", "State": "MA", "Country": "United States ", "result_num": "0", "osm_id": "1113048937", "display_name": "154, Cedar Street, Spring Hill, Somerville, Middlesex County, Massachusetts, 02144, United States", "category": "place", "type": "house", "latlong": "42.393647,-71.111464" }, "geometry": { "type": "Point", "coordinates": [ -71.111464, 42.393647 ] } },
{ "type": "Feature", "properties": { "Street Address": "362 MEDFORD ST", "City": "Somerville ", "State": "MA", "Country": "United States ", "result_num": "0", "osm_id": "29939603", "display_name": "362, Medford Street, Winter Hill, Somerville, Middlesex County, Massachusetts, 02143, United States", "category": "building", "type": "yes", "latlong": "42.38910385,-71.09739117529762" }, "geometry": { "type": "Point", "coordinates": [ -71.097391175297616, 42.38910385 ] } },
{ "type": "Feature", "properties": { "Street Address": "30 CHESTER ST", "City": "Somerville ", "State": "MA", "Country": "United States ", "result_num": "0", "osm_id": "29934804", "display_name": "30, Chester Street, Davis Square, Somerville, Middlesex County, Massachusetts, 02140, United States", "category": "building", "type": "yes", "latlong": "42.39404545,-71.1234049" }, "geometry": { "type": "Point", "coordinates": [ -71.1234049, 42.39404545 ] } },
{ "type": "Feature", "properties": { "Street Address": "118 PROSPECT ST", "City": "Somerville ", "State": "MA", "Country": "United States ", "result_num": "0", "osm_id": "11779580", "display_name": "118, Prospect Street, Somerville, Somerset County, New Jersey, 08876, United States", "category": "place", "type": "house", "latlong": "40.57715662549399,-74.62325387550506" }, "geometry": { "type": "Point", "coordinates": [ -74.623253875505057, 40.577156625493991 ] } },
{ "type": "Feature", "properties": { "Street Address": "118 BROADWAY", "City": "Somerville ", "State": "MA", "Country": "United States ", "result_num": "0", "osm_id": "29519849", "display_name": "Khoury's State Spa, 118,120, Broadway, East Somerville, Somerville, Middlesex County, Massachusetts, 02145, United States", "category": "shop", "type": "convenience", "latlong": "42.38756345,-71.08417643018173" }, "geometry": { "type": "Point", "coordinates": [ -71.084176430181728, 42.38756345 ] } },
{ "type": "Feature", "properties": { "Street Address": "109 HIGHLAND AVE", "City": "Somerville ", "State": "MA", "Country": "United States ", "result_num": "0", "osm_id": "29639847", "display_name": "109, Highland Avenue, Spring Hill, Somerville, Middlesex County, Massachusetts, 02143, United States", "category": "building", "type": "residential", "latlong": "42.3874842,-71.09970642458649" }, "geometry": { "type": "Point", "coordinates": [ -71.099706424586486, 42.3874842 ] } },
{ "type": "Feature", "properties": { "Street Address": "311 SOMERVILLE AVE", "City": "Somerville ", "State": "MA", "Country": "United States ", "result_num": "0", "osm_id": "345423138", "display_name": "311, Somerville Avenue, Union Square, Somerville, Middlesex County, Massachusetts, 02143, United States", "category": "place", "type": "house", "latlong": "42.380483,-71.0974448" }, "geometry": { "type": "Point", "coordinates": [ -71.0974448, 42.380483 ] } },
{ "type": "Feature", "properties": { "Street Address": "256 ELM ST", "City": "Somerville ", "State": "MA", "Country": "United States ", "result_num": "0", "osm_id": "6110093488", "display_name": "Elm Street Taproom, 256, Elm Street, Davis Square, Somerville, Middlesex County, Massachusetts, 02144, United States", "category": "amenity", "type": "pub", "latlong": "42.3955064,-71.1221467" }, "geometry": { "type": "Point", "coordinates": [ -71.1221467, 42.3955064 ] } },
{ "type": "Feature", "properties": { "Street Address": "2 UNION SQ", "City": "Somerville ", "State": "MA", "Country": "United States ", "result_num": "0", "osm_id": "11134295488", "display_name": "2, Union Square, Somerville, Middlesex County, Massachusetts, 02143, United States", "category": "tourism", "type": "artwork", "latlong": "42.3792143,-71.095142" }, "geometry": { "type": "Point", "coordinates": [ -71.095142, 42.3792143 ] } },
{ "type": "Feature", "properties": { "Street Address": "282 BEACON ST", "City": "Somerville ", "State": "MA", "Country": "United States ", "result_num": "0", "osm_id": "29516352", "display_name": "R.F. O'Sullivan & Son, 282, Beacon Street, Wilson Square, Somerville, Middlesex County, Massachusetts, 02143, United States", "category": "amenity", "type": "restaurant", "latlong": "42.38301145,-71.11245227897513" }, "geometry": { "type": "Point", "coordinates": [ -71.112452278975127, 42.38301145 ] } },
{ "type": "Feature", "properties": { "Street Address": "299 MEDFORD ST", "City": "Somerville ", "State": "MA", "Country": "United States ", "result_num": "0", "osm_id": "200089626", "display_name": "299;301, Medford Street, Prospect Hill, Somerville, Middlesex County, Massachusetts, 02143, United States", "category": "building", "type": "yes", "latlong": "42.386109250000004,-71.09382662297386" }, "geometry": { "type": "Point", "coordinates": [ -71.093826622973864, 42.38610925 ] } },
{ "type": "Feature", "properties": { "Street Address": "123 HIGHLAND AVE", "City": "Somerville ", "State": "MA", "Country": "United States ", "result_num": "0", "osm_id": "29727429", "display_name": "123, Highland Avenue, Spring Hill, Somerville, Middlesex County, Massachusetts, 02143, United States", "category": "building", "type": "apartments", "latlong": "42.387737,-71.1004867954043" }, "geometry": { "type": "Point", "coordinates": [ -71.100486795404294, 42.387737 ] } },
{ "type": "Feature", "properties": { "Street Address": "299 BROADWAY", "City": "Somerville ", "State": "MA", "Country": "United States ", "result_num": "0", "osm_id": "29642236", "display_name": "299, Broadway, Ten Hills, Somerville, Middlesex County, Massachusetts, 02145, United States", "category": "building", "type": "retail", "latlong": "42.3922904,-71.09184976591543" }, "geometry": { "type": "Point", "coordinates": [ -71.091849765915427, 42.3922904 ] } },
{ "type": "Feature", "properties": { "Street Address": "594 SOMERVILLE AVE", "City": "Somerville ", "State": "MA", "Country": "United States ", "result_num": "0", "osm_id": "355792803", "display_name": "594 Somerville Ave, Somerville Avenue, Wilson Square, Somerville, Middlesex County, Massachusetts, 02143, United States", "category": "highway", "type": "bus_stop", "latlong": "42.383778,-71.109215" }, "geometry": { "type": "Point", "coordinates": [ -71.109215, 42.383778 ] } },
{ "type": "Feature", "properties": { "Street Address": "577 SOMERVILLE AVE", "City": "Somerville ", "State": "MA", "Country": "United States ", "result_num": "0", "osm_id": "29516331", "display_name": "577, Somerville Avenue, Spring Hill, Somerville, Middlesex County, Massachusetts, 02143, United States", "category": "building", "type": "yes", "latlong": "42.38385565,-71.10846188256957" }, "geometry": { "type": "Point", "coordinates": [ -71.108461882569571, 42.38385565 ] } },
{ "type": "Feature", "properties": { "Street Address": "288 BROADWAY", "City": "Somerville ", "State": "MA", "Country": "United States ", "result_num": "0", "osm_id": "29820246", "display_name": "284;286;288, Broadway, East Somerville, Somerville, Middlesex County, Massachusetts, 02145, United States", "category": "building", "type": "retail", "latlong": "42.3916828,-71.09225049221519" }, "geometry": { "type": "Point", "coordinates": [ -71.092250492215186, 42.3916828 ] } },
{ "type": "Feature", "properties": { "Street Address": "155 HIGHLAND AVE", "City": "Somerville ", "State": "MA", "Country": "United States ", "result_num": "0", "osm_id": "8605381", "display_name": "155, Highland Avenue, Spring Hill, Somerville, Middlesex County, Massachusetts, 02143, United States", "category": "place", "type": "house", "latlong": "42.388541,-71.103533" }, "geometry": { "type": "Point", "coordinates": [ -71.103533, 42.388541 ] } },
{ "type": "Feature", "properties": { "Street Address": "52 BROADWAY", "City": "Somerville ", "State": "MA", "Country": "United States ", "result_num": "0", "osm_id": "29742379", "display_name": "52;52A, Broadway, East Somerville, Somerville, Middlesex County, Massachusetts, 02145, United States", "category": "building", "type": "retail", "latlong": "42.38640145,-71.0802843487912" }, "geometry": { "type": "Point", "coordinates": [ -71.080284348791196, 42.38640145 ] } },
{ "type": "Feature", "properties": { "Street Address": "474 BROADWAY", "City": "Somerville ", "State": "MA", "Country": "United States ", "result_num": "0", "osm_id": "29796197", "display_name": "474, Broadway, Magoun Square, Somerville, Middlesex County, Massachusetts, 02143, United States", "category": "building", "type": "apartments", "latlong": "42.3967162,-71.10314235" }, "geometry": { "type": "Point", "coordinates": [ -71.10314235, 42.3967162 ] } },
{ "type": "Feature", "properties": { "Street Address": "692 BROADWAY", "City": "Somerville ", "State": "MA", "Country": "United States ", "result_num": "0", "osm_id": "1117304104", "display_name": "692, Broadway, Ball Square, Somerville, Middlesex County, Massachusetts, 02145, United States", "category": "place", "type": "house", "latlong": "42.398807612244894,-71.10921595918367" }, "geometry": { "type": "Point", "coordinates": [ -71.109215959183672, 42.398807612244894 ] } },
{ "type": "Feature", "properties": { "Street Address": "692 BROADWAY", "City": "Somerville ", "State": "MA", "Country": "United States ", "result_num": "0", "osm_id": "1117304104", "display_name": "692, Broadway, Ball Square, Somerville, Middlesex County, Massachusetts, 02145, United States", "category": "place", "type": "house", "latlong": "42.398807612244894,-71.10921595918367" }, "geometry": { "type": "Point", "coordinates": [ -71.109215959183672, 42.398807612244894 ] } },
{ "type": "Feature", "properties": { "Street Address": "38 CROSS ST", "City": "Somerville ", "State": "MA", "Country": "United States ", "result_num": "0", "osm_id": "29940371", "display_name": "38, Cross Street, East Somerville, Somerville, Middlesex County, Massachusetts, 02145, United States", "category": "building", "type": "yes", "latlong": "42.38687135,-71.08682773223566" }, "geometry": { "type": "Point", "coordinates": [ -71.086827732235662, 42.38687135 ] } },
{ "type": "Feature", "properties": { "Street Address": "8 CRAIGIE ST", "City": "Somerville ", "State": "MA", "Country": "United States ", "result_num": "0", "osm_id": "29724443", "display_name": "8;10, Craigie Street, Wilson Square, Somerville, Middlesex County, Massachusetts, 02143, United States", "category": "building", "type": "yes", "latlong": "42.38568945,-71.11285381521145" }, "geometry": { "type": "Point", "coordinates": [ -71.112853815211452, 42.38568945 ] } },
{ "type": "Feature", "properties": { "Street Address": "8 WHITFIELD RD", "City": "Somerville ", "State": "MA", "Country": "United States ", "result_num": "0", "osm_id": "29727552", "display_name": "Milne House, 8-10, Whitfield Road, Somerville, Middlesex County, Massachusetts, 02144, United States", "category": "building", "type": "yes", "latlong": "42.4056205,-71.12328075" }, "geometry": { "type": "Point", "coordinates": [ -71.12328075, 42.4056205 ] } },
{ "type": "Feature", "properties": { "Street Address": "163 WASHINGTON ST", "City": "Somerville ", "State": "MA", "Country": "United States ", "result_num": "0", "osm_id": "29741787", "display_name": "161;163;165;169;171;175;179, Washington Street, Prospect Hill, Somerville, Middlesex County, Massachusetts, 02143, United States", "category": "building", "type": "yes", "latlong": "42.38019745,-71.09043953408377" }, "geometry": { "type": "Point", "coordinates": [ -71.090439534083771, 42.38019745 ] } },
{ "type": "Feature", "properties": { "Street Address": "52 MCGRATH HWY", "City": "Somerville ", "State": "MA", "Country": "United States ", "result_num": "0", "osm_id": "9429793", "display_name": "52, McGrath Highway, Brickbottom, Somerville, Middlesex County, Massachusetts, 02143, United States", "category": "place", "type": "house", "latlong": "42.374620167678884,-71.08360640558305" }, "geometry": { "type": "Point", "coordinates": [ -71.083606405583055, 42.374620167678884 ] } },
{ "type": "Feature", "properties": { "Street Address": "373 HIGHLAND AVE", "City": "Somerville ", "State": "MA", "Country": "United States ", "result_num": "0", "osm_id": "29514245", "display_name": "373, Highland Avenue, Spring Hill, Somerville, Middlesex County, Massachusetts, 02144, United States", "category": "building", "type": "apartments", "latlong": "42.395503649999995,-71.11853981921224" }, "geometry": { "type": "Point", "coordinates": [ -71.118539819212245, 42.39550365 ] } },
{ "type": "Feature", "properties": { "Street Address": "156 HIGHLAND AVE", "City": "Somerville ", "State": "MA", "Country": "United States ", "result_num": "0", "osm_id": "8605381", "display_name": "156, Highland Avenue, Spring Hill, Somerville, Middlesex County, Massachusetts, 02143, United States", "category": "place", "type": "house", "latlong": "42.3884405,-71.10377225" }, "geometry": { "type": "Point", "coordinates": [ -71.10377225, 42.3884405 ] } },
{ "type": "Feature", "properties": { "Street Address": "25 MANSFIELD ST", "City": "Somerville ", "State": "MA", "Country": "United States ", "result_num": "0", "osm_id": "29819862", "display_name": "25, Mansfield Street, Brickbottom, Somerville, Middlesex County, Massachusetts, 02141, United States", "category": "building", "type": "yes", "latlong": "42.3784615,-71.090115394545" }, "geometry": { "type": "Point", "coordinates": [ -71.090115394544995, 42.3784615 ] } },
{ "type": "Feature", "properties": { "Street Address": "74 CRAIGIE ST", "City": "Somerville ", "State": "MA", "Country": "United States ", "result_num": "0", "osm_id": "29683407", "display_name": "74, Craigie Street, Wilson Square, Somerville, Middlesex County, Massachusetts, 02143, United States", "category": "building", "type": "yes", "latlong": "42.388128300000005,-71.111264" }, "geometry": { "type": "Point", "coordinates": [ -71.111264, 42.3881283 ] } },
{ "type": "Feature", "properties": { "Street Address": "384 SOMERVILLE AVE", "City": "Somerville ", "State": "MA", "Country": "United States ", "result_num": "0", "osm_id": "524588879", "display_name": "384, Somerville Avenue, Union Square, Somerville, Middlesex County, Massachusetts, 02143, United States", "category": "place", "type": "house", "latlong": "42.38128534349218,-71.10010414758601" }, "geometry": { "type": "Point", "coordinates": [ -71.100104147586009, 42.381285343492181 ] } },
{ "type": "Feature", "properties": { "Street Address": "106 PROFESSORS ROW", "City": "Somerville ", "State": "MA", "Country": "United States ", "result_num": "0", "osm_id": "29826111", "display_name": "106, Professors Row, Somerville, Middlesex County, Massachusetts, 02144, United States", "category": "building", "type": "yes", "latlong": "42.4069188,-71.12302576842313" }, "geometry": { "type": "Point", "coordinates": [ -71.123025768423133, 42.4069188 ] } },
{ "type": "Feature", "properties": { "Street Address": "256 ELM ST", "City": "Somerville ", "State": "MA", "Country": "United States ", "result_num": "0", "osm_id": "6110093488", "display_name": "Elm Street Taproom, 256, Elm Street, Davis Square, Somerville, Middlesex County, Massachusetts, 02144, United States", "category": "amenity", "type": "pub", "latlong": "42.3955064,-71.1221467" }, "geometry": { "type": "Point", "coordinates": [ -71.1221467, 42.3955064 ] } },
{ "type": "Feature", "properties": { "Street Address": "22 MCGRATH HWY", "City": "Somerville ", "State": "MA", "Country": "United States ", "result_num": "0", "osm_id": "4987379337", "display_name": "Ever Fitness, 14;20;22, McGrath Highway, Brickbottom, Somerville, Middlesex County, Massachusetts, 02141, United States", "category": "leisure", "type": "fitness_centre", "latlong": "42.3745525,-71.0855502" }, "geometry": { "type": "Point", "coordinates": [ -71.0855502, 42.3745525 ] } },
{ "type": "Feature", "properties": { "Street Address": "674 BROADWAY", "City": "Somerville ", "State": "MA", "Country": "United States ", "result_num": "0", "osm_id": "29589780", "display_name": "674;682;688;690;694, Broadway, Ball Square, Somerville, Middlesex County, Massachusetts, 02144, United States", "category": "building", "type": "retail", "latlong": "42.39961155,-71.11189175057041" }, "geometry": { "type": "Point", "coordinates": [ -71.111891750570408, 42.39961155 ] } },
{ "type": "Feature", "properties": { "Street Address": "384 SOMERVILLE AVE", "City": "Somerville ", "State": "MA", "Country": "United States ", "result_num": "0", "osm_id": "524588879", "display_name": "384, Somerville Avenue, Union Square, Somerville, Middlesex County, Massachusetts, 02143, United States", "category": "place", "type": "house", "latlong": "42.38128534349218,-71.10010414758601" }, "geometry": { "type": "Point", "coordinates": [ -71.100104147586009, 42.381285343492181 ] } },
{ "type": "Feature", "properties": { "Street Address": "1153 BROADWAY", "City": "Somerville ", "State": "MA", "Country": "United States ", "result_num": "0", "osm_id": "4545700989", "display_name": "True Bistro, 1153, Broadway, Teele Square, Somerville, Middlesex County, Massachusetts, 02144, United States", "category": "amenity", "type": "restaurant", "latlong": "42.4034431,-71.1273221" }, "geometry": { "type": "Point", "coordinates": [ -71.1273221, 42.4034431 ] } },
{ "type": "Feature", "properties": { "Street Address": "90 CURTIS ST", "City": "Somerville ", "State": "MA", "Country": "United States ", "result_num": "0", "osm_id": "29820290", "display_name": "90;92;94, Curtis Street, Somerville, Middlesex County, Massachusetts, 02144, United States", "category": "building", "type": "yes", "latlong": "42.40648,-71.12539597383591" }, "geometry": { "type": "Point", "coordinates": [ -71.125395973835907, 42.40648 ] } },
{ "type": "Feature", "properties": { "Street Address": "100 PACKARD AVE", "City": "Somerville ", "State": "MA", "Country": "United States ", "result_num": "0", "osm_id": "29533561", "display_name": "100, Packard Avenue, West Somerville, Somerville, Middlesex County, Massachusetts, 02144, United States", "category": "building", "type": "yes", "latlong": "42.40554805,-71.12301224394963" }, "geometry": { "type": "Point", "coordinates": [ -71.123012243949631, 42.40554805 ] } },
{ "type": "Feature", "properties": { "Street Address": "125 POWDER HOUSE BLVD", "City": "Somerville ", "State": "MA", "Country": "United States ", "result_num": "0", "osm_id": "29824805", "display_name": "Chandler House, 125, Powder House Boulevard, Ball Square, Somerville, Middlesex County, Massachusetts, 02144, United States", "category": "building", "type": "yes", "latlong": "42.40474535,-71.12354165606344" }, "geometry": { "type": "Point", "coordinates": [ -71.123541656063438, 42.40474535 ] } },
{ "type": "Feature", "properties": { "Street Address": "147 SUMMER ST", "City": "Somerville ", "State": "MA", "Country": "United States ", "result_num": "0", "osm_id": "29514794", "display_name": "147, Summer Street, Spring Hill, Somerville, Middlesex County, Massachusetts, 02143, United States", "category": "building", "type": "yes", "latlong": "42.3861572,-71.10480341888623" }, "geometry": { "type": "Point", "coordinates": [ -71.104803418886235, 42.3861572 ] } },
{ "type": "Feature", "properties": { "Street Address": "474 BROADWAY", "City": "Somerville ", "State": "MA", "Country": "United States ", "result_num": "0", "osm_id": "29796197", "display_name": "474, Broadway, Magoun Square, Somerville, Middlesex County, Massachusetts, 02143, United States", "category": "building", "type": "apartments", "latlong": "42.3967162,-71.10314235" }, "geometry": { "type": "Point", "coordinates": [ -71.10314235, 42.3967162 ] } },
{ "type": "Feature", "properties": { "Street Address": "221 PEARL ST", "City": "Somerville ", "State": "MA", "Country": "United States ", "result_num": "0", "osm_id": "29716289", "display_name": "219;221;223;225, Pearl Street, Prospect Hill, Somerville, Middlesex County, Massachusetts, 02143, United States", "category": "building", "type": "apartments", "latlong": "42.3876834,-71.09369755118911" }, "geometry": { "type": "Point", "coordinates": [ -71.093697551189109, 42.3876834 ] } },
{ "type": "Feature", "properties": { "Street Address": "124 PROFESSORS ROW", "City": "Somerville ", "State": "MA", "Country": "United States ", "result_num": "0", "osm_id": "29744889", "display_name": "Tufts University Health Service, 124, Professors Row, Somerville, Middlesex County, Massachusetts, 02144, United States", "category": "amenity", "type": "clinic", "latlong": "42.4071025,-71.12373684282963" }, "geometry": { "type": "Point", "coordinates": [ -71.123736842829629, 42.4071025 ] } },
{ "type": "Feature", "properties": { "Street Address": "118 CONCORD AVE", "City": "Somerville ", "State": "MA", "Country": "United States ", "result_num": "0", "osm_id": "29795091", "display_name": "108;108-120;110;112;114;116;118, Concord Avenue, Union Square, Somerville, Middlesex County, Massachusetts, 02143, United States", "category": "building", "type": "yes", "latlong": "42.37519845,-71.10214331857986" }, "geometry": { "type": "Point", "coordinates": [ -71.102143318579863, 42.37519845 ] } },
{ "type": "Feature", "properties": { "Street Address": "25 MANSFIELD ST", "City": "Somerville ", "State": "MA", "Country": "United States ", "result_num": "0", "osm_id": "29819862", "display_name": "25, Mansfield Street, Brickbottom, Somerville, Middlesex County, Massachusetts, 02141, United States", "category": "building", "type": "yes", "latlong": "42.3784615,-71.090115394545" }, "geometry": { "type": "Point", "coordinates": [ -71.090115394544995, 42.3784615 ] } },
{ "type": "Feature", "properties": { "Street Address": "1147 BROADWAY", "City": "Somerville ", "State": "MA", "Country": "United States ", "result_num": "0", "osm_id": "302110862", "display_name": "1147, Broadway, Teele Square, Somerville, Middlesex County, Massachusetts, 02144, United States", "category": "place", "type": "house", "latlong": "42.40327818181818,-71.12699075757575" }, "geometry": { "type": "Point", "coordinates": [ -71.126990757575754, 42.40327818181818 ] } },
{ "type": "Feature", "properties": { "Street Address": "216 MCGRATH HWY", "City": "Somerville ", "State": "MA", "Country": "United States ", "result_num": "0", "osm_id": "29934585", "display_name": "216, McGrath Highway, Brickbottom, Somerville, Middlesex County, Massachusetts, 02141, United States", "category": "building", "type": "industrial", "latlong": "42.37671625,-71.08877415990932" }, "geometry": { "type": "Point", "coordinates": [ -71.08877415990932, 42.37671625 ] } },
{ "type": "Feature", "properties": { "Street Address": "50 MIDDLESEX AVE", "City": "Somerville ", "State": "MA", "Country": "United States ", "result_num": "0", "osm_id": "29739175", "display_name": "50, Middlesex Avenue, Ten Hills, Somerville, Middlesex County, Massachusetts, 02145, United States", "category": "building", "type": "yes", "latlong": "42.3923094,-71.08327954966983" }, "geometry": { "type": "Point", "coordinates": [ -71.083279549669825, 42.3923094 ] } },
{ "type": "Feature", "properties": { "Street Address": "13 HIGHLAND AVE", "City": "Somerville ", "State": "MA", "Country": "United States ", "result_num": "0", "osm_id": "29934225", "display_name": "13, Highland Avenue, Spring Hill, Somerville, Middlesex County, Massachusetts, 02143, United States", "category": "building", "type": "semidetached_house", "latlong": "42.384914699999996,-71.09310583825723" }, "geometry": { "type": "Point", "coordinates": [ -71.09310583825723, 42.3849147 ] } },
{ "type": "Feature", "properties": { "Street Address": "236 ELM ST", "City": "Somerville ", "State": "MA", "Country": "United States ", "result_num": "0", "osm_id": "6093964495", "display_name": "Kong Dog, 236, Elm Street, Davis Square, Somerville, Middlesex County, Massachusetts, 02144, United States", "category": "amenity", "type": "cafe", "latlong": "42.3948298,-71.121685" }, "geometry": { "type": "Point", "coordinates": [ -71.121685, 42.3948298 ] } },
{ "type": "Feature", "properties": { "Street Address": "282 BEACON ST", "City": "Somerville ", "State": "MA", "Country": "United States ", "result_num": "0", "osm_id": "29516352", "display_name": "R.F. O'Sullivan & Son, 282, Beacon Street, Wilson Square, Somerville, Middlesex County, Massachusetts, 02143, United States", "category": "amenity", "type": "restaurant", "latlong": "42.38301145,-71.11245227897513" }, "geometry": { "type": "Point", "coordinates": [ -71.112452278975127, 42.38301145 ] } },
{ "type": "Feature", "properties": { "Street Address": "365 BROADWAY", "City": "Somerville ", "State": "MA", "Country": "United States ", "result_num": "0", "osm_id": "29787514", "display_name": "365, Broadway, Winter Hill, Somerville, Middlesex County, Massachusetts, 02145, United States", "category": "building", "type": "apartments", "latlong": "42.3940902,-71.09555229162956" }, "geometry": { "type": "Point", "coordinates": [ -71.095552291629559, 42.3940902 ] } },
{ "type": "Feature", "properties": { "Street Address": "256 ELM ST", "City": "Somerville ", "State": "MA", "Country": "United States ", "result_num": "0", "osm_id": "6110093488", "display_name": "Elm Street Taproom, 256, Elm Street, Davis Square, Somerville, Middlesex County, Massachusetts, 02144, United States", "category": "amenity", "type": "pub", "latlong": "42.3955064,-71.1221467" }, "geometry": { "type": "Point", "coordinates": [ -71.1221467, 42.3955064 ] } },
{ "type": "Feature", "properties": { "Street Address": "40 WHITE ST", "City": "Somerville ", "State": "MA", "Country": "United States ", "result_num": "0", "osm_id": "29792242", "display_name": "40, White Street, Avon Hill, Somerville, Middlesex County, Massachusetts, 02144, United States", "category": "building", "type": "retail", "latlong": "42.38911485,-71.1176579884418" }, "geometry": { "type": "Point", "coordinates": [ -71.117657988441806, 42.38911485 ] } },
{ "type": "Feature", "properties": { "Street Address": "290 SOMERVILLE AVE", "City": "Somerville ", "State": "MA", "Country": "United States ", "result_num": "0", "osm_id": "2622538171", "display_name": "Ebi Sushi, 290, Somerville Avenue, Union Square, Somerville, Middlesex County, Massachusetts, 02143, United States", "category": "amenity", "type": "restaurant", "latlong": "42.379091,-71.0946305" }, "geometry": { "type": "Point", "coordinates": [ -71.0946305, 42.379091 ] } },
{ "type": "Feature", "properties": { "Street Address": "355 BROADWAY", "City": "Somerville ", "State": "MA", "Country": "United States ", "result_num": "0", "osm_id": "29937349", "display_name": "355, Broadway, Winter Hill, Somerville, Middlesex County, Massachusetts, 02145, United States", "category": "building", "type": "apartments", "latlong": "42.39391275,-71.09528699962239" }, "geometry": { "type": "Point", "coordinates": [ -71.095286999622388, 42.39391275 ] } },
{ "type": "Feature", "properties": { "Street Address": "594 SOMERVILLE AVE", "City": "Somerville ", "State": "MA", "Country": "United States ", "result_num": "0", "osm_id": "355792803", "display_name": "594 Somerville Ave, Somerville Avenue, Wilson Square, Somerville, Middlesex County, Massachusetts, 02143, United States", "category": "highway", "type": "bus_stop", "latlong": "42.383778,-71.109215" }, "geometry": { "type": "Point", "coordinates": [ -71.109215, 42.383778 ] } },
{ "type": "Feature", "properties": { "Street Address": "62 HIGHLAND AVE", "City": "Somerville ", "State": "MA", "Country": "United States ", "result_num": "0", "osm_id": "29642461", "display_name": "62, Highland Avenue, Spring Hill, Somerville, Middlesex County, Massachusetts, 02143, United States", "category": "building", "type": "yes", "latlong": "42.3855958,-71.0958716004748" }, "geometry": { "type": "Point", "coordinates": [ -71.095871600474794, 42.3855958 ] } },
{ "type": "Feature", "properties": { "Street Address": "78 BROADWAY", "City": "Somerville ", "State": "MA", "Country": "United States ", "result_num": "0", "osm_id": "156991946", "display_name": "Bairos Liquors, 78, Broadway, East Somerville, Somerville, Middlesex County, Massachusetts, 02145, United States", "category": "shop", "type": "alcohol", "latlong": "42.38693275,-71.08195951717747" }, "geometry": { "type": "Point", "coordinates": [ -71.081959517177467, 42.38693275 ] } },
{ "type": "Feature", "properties": { "Street Address": "118 BROADWAY", "City": "Somerville ", "State": "MA", "Country": "United States ", "result_num": "0", "osm_id": "29519849", "display_name": "Khoury's State Spa, 118,120, Broadway, East Somerville, Somerville, Middlesex County, Massachusetts, 02145, United States", "category": "shop", "type": "convenience", "latlong": "42.38756345,-71.08417643018173" }, "geometry": { "type": "Point", "coordinates": [ -71.084176430181728, 42.38756345 ] } },
{ "type": "Feature", "properties": { "Street Address": "299 BROADWAY", "City": "Somerville ", "State": "MA", "Country": "United States ", "result_num": "0", "osm_id": "29642236", "display_name": "299, Broadway, Ten Hills, Somerville, Middlesex County, Massachusetts, 02145, United States", "category": "building", "type": "retail", "latlong": "42.3922904,-71.09184976591543" }, "geometry": { "type": "Point", "coordinates": [ -71.091849765915427, 42.3922904 ] } },
{ "type": "Feature", "properties": { "Street Address": "123 HIGHLAND AVE", "City": "Somerville ", "State": "MA", "Country": "United States ", "result_num": "0", "osm_id": "29727429", "display_name": "123, Highland Avenue, Spring Hill, Somerville, Middlesex County, Massachusetts, 02143, United States", "category": "building", "type": "apartments", "latlong": "42.387737,-71.1004867954043" }, "geometry": { "type": "Point", "coordinates": [ -71.100486795404294, 42.387737 ] } },
{ "type": "Feature", "properties": { "Street Address": "288 BROADWAY", "City": "Somerville ", "State": "MA", "Country": "United States ", "result_num": "0", "osm_id": "29820246", "display_name": "284;286;288, Broadway, East Somerville, Somerville, Middlesex County, Massachusetts, 02145, United States", "category": "building", "type": "retail", "latlong": "42.3916828,-71.09225049221519" }, "geometry": { "type": "Point", "coordinates": [ -71.092250492215186, 42.3916828 ] } },
{ "type": "Feature", "properties": { "Street Address": "154 CEDAR ST", "City": "Somerville ", "State": "MA", "Country": "United States ", "result_num": "0", "osm_id": "1113048937", "display_name": "154, Cedar Street, Spring Hill, Somerville, Middlesex County, Massachusetts, 02144, United States", "category": "place", "type": "house", "latlong": "42.393647,-71.111464" }, "geometry": { "type": "Point", "coordinates": [ -71.111464, 42.393647 ] } },
{ "type": "Feature", "properties": { "Street Address": "1147 BROADWAY", "City": "Somerville ", "State": "MA", "Country": "United States ", "result_num": "0", "osm_id": "302110862", "display_name": "1147, Broadway, Teele Square, Somerville, Middlesex County, Massachusetts, 02144, United States", "category": "place", "type": "house", "latlong": "42.40327818181818,-71.12699075757575" }, "geometry": { "type": "Point", "coordinates": [ -71.126990757575754, 42.40327818181818 ] } },
{ "type": "Feature", "properties": { "Street Address": "123 HIGHLAND AVE", "City": "Somerville ", "State": "MA", "Country": "United States ", "result_num": "0", "osm_id": "29727429", "display_name": "123, Highland Avenue, Spring Hill, Somerville, Middlesex County, Massachusetts, 02143, United States", "category": "building", "type": "apartments", "latlong": "42.387737,-71.1004867954043" }, "geometry": { "type": "Point", "coordinates": [ -71.100486795404294, 42.387737 ] } },
{ "type": "Feature", "properties": { "Street Address": "88 BROADWAY", "City": "Somerville ", "State": "MA", "Country": "United States ", "result_num": "0", "osm_id": "29792028", "display_name": "88, Broadway, East Somerville, Somerville, Middlesex County, Massachusetts, 02145, United States", "category": "building", "type": "retail", "latlong": "42.387074299999995,-71.08262767724004" }, "geometry": { "type": "Point", "coordinates": [ -71.08262767724004, 42.3870743 ] } },
{ "type": "Feature", "properties": { "Street Address": "8 WHITFIELD RD", "City": "Somerville ", "State": "MA", "Country": "United States ", "result_num": "0", "osm_id": "29727552", "display_name": "Milne House, 8-10, Whitfield Road, Somerville, Middlesex County, Massachusetts, 02144, United States", "category": "building", "type": "yes", "latlong": "42.4056205,-71.12328075" }, "geometry": { "type": "Point", "coordinates": [ -71.12328075, 42.4056205 ] } },
{ "type": "Feature", "properties": { "Street Address": "221 PEARL ST", "City": "Somerville ", "State": "MA", "Country": "United States ", "result_num": "0", "osm_id": "29716289", "display_name": "219;221;223;225, Pearl Street, Prospect Hill, Somerville, Middlesex County, Massachusetts, 02143, United States", "category": "building", "type": "apartments", "latlong": "42.3876834,-71.09369755118911" }, "geometry": { "type": "Point", "coordinates": [ -71.093697551189109, 42.3876834 ] } },
{ "type": "Feature", "properties": { "Street Address": "216 MCGRATH HWY", "City": "Somerville ", "State": "MA", "Country": "United States ", "result_num": "0", "osm_id": "29934585", "display_name": "216, McGrath Highway, Brickbottom, Somerville, Middlesex County, Massachusetts, 02141, United States", "category": "building", "type": "industrial", "latlong": "42.37671625,-71.08877415990932" }, "geometry": { "type": "Point", "coordinates": [ -71.08877415990932, 42.37671625 ] } },
{ "type": "Feature", "properties": { "Street Address": "8 CRAIGIE ST", "City": "Somerville ", "State": "MA", "Country": "United States ", "result_num": "0", "osm_id": "29724443", "display_name": "8;10, Craigie Street, Wilson Square, Somerville, Middlesex County, Massachusetts, 02143, United States", "category": "building", "type": "yes", "latlong": "42.38568945,-71.11285381521145" }, "geometry": { "type": "Point", "coordinates": [ -71.112853815211452, 42.38568945 ] } },
{ "type": "Feature", "properties": { "Street Address": "236 ELM ST", "City": "Somerville ", "State": "MA", "Country": "United States ", "result_num": "0", "osm_id": "6093964495", "display_name": "Kong Dog, 236, Elm Street, Davis Square, Somerville, Middlesex County, Massachusetts, 02144, United States", "category": "amenity", "type": "cafe", "latlong": "42.3948298,-71.121685" }, "geometry": { "type": "Point", "coordinates": [ -71.121685, 42.3948298 ] } },
{ "type": "Feature", "properties": { "Street Address": "5 DAVIS SQ", "City": "Somerville ", "State": "MA", "Country": "United States ", "result_num": "0", "osm_id": "93168579", "display_name": "5, Davis Square, Somerville, Middlesex County, Massachusetts, 02144, United States", "category": "place", "type": "house", "latlong": "42.39669175510204,-71.12235483673469" }, "geometry": { "type": "Point", "coordinates": [ -71.122354836734687, 42.39669175510204 ] } },
{ "type": "Feature", "properties": { "Street Address": "286 SOMERVILLE AVE", "City": "Somerville ", "State": "MA", "Country": "United States ", "result_num": "0", "osm_id": "29642762", "display_name": "Dunkin', 282;286, Somerville Avenue, Union Square, Somerville, Middlesex County, Massachusetts, 02143, United States", "category": "amenity", "type": "fast_food", "latlong": "42.378780649999996,-71.09464007932812" }, "geometry": { "type": "Point", "coordinates": [ -71.094640079328116, 42.37878065 ] } },
{ "type": "Feature", "properties": { "Street Address": "256 ELM ST", "City": "Somerville ", "State": "MA", "Country": "United States ", "result_num": "0", "osm_id": "6110093488", "display_name": "Elm Street Taproom, 256, Elm Street, Davis Square, Somerville, Middlesex County, Massachusetts, 02144, United States", "category": "amenity", "type": "pub", "latlong": "42.3955064,-71.1221467" }, "geometry": { "type": "Point", "coordinates": [ -71.1221467, 42.3955064 ] } },
{ "type": "Feature", "properties": { "Street Address": "246 ELM ST", "City": "Somerville ", "State": "MA", "Country": "United States ", "result_num": "0", "osm_id": "1546690464", "display_name": "Genki Ya, 246, Elm Street, Davis Square, Somerville, Middlesex County, Massachusetts, 02144, United States", "category": "amenity", "type": "restaurant", "latlong": "42.3953258,-71.1220661" }, "geometry": { "type": "Point", "coordinates": [ -71.1220661, 42.3953258 ] } },
{ "type": "Feature", "properties": { "Street Address": "5 DAVIS SQ", "City": "Somerville ", "State": "MA", "Country": "United States ", "result_num": "0", "osm_id": "93168579", "display_name": "5, Davis Square, Somerville, Middlesex County, Massachusetts, 02144, United States", "category": "place", "type": "house", "latlong": "42.39669175510204,-71.12235483673469" }, "geometry": { "type": "Point", "coordinates": [ -71.122354836734687, 42.39669175510204 ] } },
{ "type": "Feature", "properties": { "Street Address": "256 ELM ST", "City": "Somerville ", "State": "MA", "Country": "United States ", "result_num": "0", "osm_id": "6110093488", "display_name": "Elm Street Taproom, 256, Elm Street, Davis Square, Somerville, Middlesex County, Massachusetts, 02144, United States", "category": "amenity", "type": "pub", "latlong": "42.3955064,-71.1221467" }, "geometry": { "type": "Point", "coordinates": [ -71.1221467, 42.3955064 ] } },
{ "type": "Feature", "properties": { "Street Address": "256 ELM ST", "City": "Somerville ", "State": "MA", "Country": "United States ", "result_num": "0", "osm_id": "6110093488", "display_name": "Elm Street Taproom, 256, Elm Street, Davis Square, Somerville, Middlesex County, Massachusetts, 02144, United States", "category": "amenity", "type": "pub", "latlong": "42.3955064,-71.1221467" }, "geometry": { "type": "Point", "coordinates": [ -71.1221467, 42.3955064 ] } },
{ "type": "Feature", "properties": { "Street Address": "256 ELM ST", "City": "Somerville ", "State": "MA", "Country": "United States ", "result_num": "0", "osm_id": "6110093488", "display_name": "Elm Street Taproom, 256, Elm Street, Davis Square, Somerville, Middlesex County, Massachusetts, 02144, United States", "category": "amenity", "type": "pub", "latlong": "42.3955064,-71.1221467" }, "geometry": { "type": "Point", "coordinates": [ -71.1221467, 42.3955064 ] } },
{ "type": "Feature", "properties": { "Street Address": "286 SOMERVILLE AVE", "City": "Somerville ", "State": "MA", "Country": "United States ", "result_num": "0", "osm_id": "29642762", "display_name": "Dunkin', 282;286, Somerville Avenue, Union Square, Somerville, Middlesex County, Massachusetts, 02143, United States", "category": "amenity", "type": "fast_food", "latlong": "42.378780649999996,-71.09464007932812" }, "geometry": { "type": "Point", "coordinates": [ -71.094640079328116, 42.37878065 ] } },
{ "type": "Feature", "properties": { "Street Address": "5 DAVIS SQ", "City": "Somerville ", "State": "MA", "Country": "United States ", "result_num": "0", "osm_id": "93168579", "display_name": "5, Davis Square, Somerville, Middlesex County, Massachusetts, 02144, United States", "category": "place", "type": "house", "latlong": "42.39669175510204,-71.12235483673469" }, "geometry": { "type": "Point", "coordinates": [ -71.122354836734687, 42.39669175510204 ] } },
{ "type": "Feature", "properties": { "Street Address": "256 ELM ST", "City": "Somerville ", "State": "MA", "Country": "United States ", "result_num": "0", "osm_id": "6110093488", "display_name": "Elm Street Taproom, 256, Elm Street, Davis Square, Somerville, Middlesex County, Massachusetts, 02144, United States", "category": "amenity", "type": "pub", "latlong": "42.3955064,-71.1221467" }, "geometry": { "type": "Point", "coordinates": [ -71.1221467, 42.3955064 ] } },
{ "type": "Feature", "properties": { "Street Address": "256 ELM ST", "City": "Somerville ", "State": "MA", "Country": "United States ", "result_num": "0", "osm_id": "6110093488", "display_name": "Elm Street Taproom, 256, Elm Street, Davis Square, Somerville, Middlesex County, Massachusetts, 02144, United States", "category": "amenity", "type": "pub", "latlong": "42.3955064,-71.1221467" }, "geometry": { "type": "Point", "coordinates": [ -71.1221467, 42.3955064 ] } },
{ "type": "Feature", "properties": { "Street Address": "5 DAVIS SQ", "City": "Somerville ", "State": "MA", "Country": "United States ", "result_num": "0", "osm_id": "93168579", "display_name": "5, Davis Square, Somerville, Middlesex County, Massachusetts, 02144, United States", "category": "place", "type": "house", "latlong": "42.39669175510204,-71.12235483673469" }, "geometry": { "type": "Point", "coordinates": [ -71.122354836734687, 42.39669175510204 ] } },
{ "type": "Feature", "properties": { "Street Address": "290 SOMERVILLE AVE", "City": "Somerville ", "State": "MA", "Country": "United States ", "result_num": "0", "osm_id": "2622538171", "display_name": "Ebi Sushi, 290, Somerville Avenue, Union Square, Somerville, Middlesex County, Massachusetts, 02143, United States", "category": "amenity", "type": "restaurant", "latlong": "42.379091,-71.0946305" }, "geometry": { "type": "Point", "coordinates": [ -71.0946305, 42.379091 ] } },
{ "type": "Feature", "properties": { "Street Address": "256 ELM ST", "City": "Somerville ", "State": "MA", "Country": "United States ", "result_num": "0", "osm_id": "6110093488", "display_name": "Elm Street Taproom, 256, Elm Street, Davis Square, Somerville, Middlesex County, Massachusetts, 02144, United States", "category": "amenity", "type": "pub", "latlong": "42.3955064,-71.1221467" }, "geometry": { "type": "Point", "coordinates": [ -71.1221467, 42.3955064 ] } },
{ "type": "Feature", "properties": { "Street Address": "256 ELM ST", "City": "Somerville ", "State": "MA", "Country": "United States ", "result_num": "0", "osm_id": "6110093488", "display_name": "Elm Street Taproom, 256, Elm Street, Davis Square, Somerville, Middlesex County, Massachusetts, 02144, United States", "category": "amenity", "type": "pub", "latlong": "42.3955064,-71.1221467" }, "geometry": { "type": "Point", "coordinates": [ -71.1221467, 42.3955064 ] } },
{ "type": "Feature", "properties": { "Street Address": "5 DAVIS SQ", "City": "Somerville ", "State": "MA", "Country": "United States ", "result_num": "0", "osm_id": "93168579", "display_name": "5, Davis Square, Somerville, Middlesex County, Massachusetts, 02144, United States", "category": "place", "type": "house", "latlong": "42.39669175510204,-71.12235483673469" }, "geometry": { "type": "Point", "coordinates": [ -71.122354836734687, 42.39669175510204 ] } },
{ "type": "Feature", "properties": { "Street Address": "256 ELM ST", "City": "Somerville ", "State": "MA", "Country": "United States ", "result_num": "0", "osm_id": "6110093488", "display_name": "Elm Street Taproom, 256, Elm Street, Davis Square, Somerville, Middlesex County, Massachusetts, 02144, United States", "category": "amenity", "type": "pub", "latlong": "42.3955064,-71.1221467" }, "geometry": { "type": "Point", "coordinates": [ -71.1221467, 42.3955064 ] } },
{ "type": "Feature", "properties": { "Street Address": "5 DAVIS SQ", "City": "Somerville ", "State": "MA", "Country": "United States ", "result_num": "0", "osm_id": "93168579", "display_name": "5, Davis Square, Somerville, Middlesex County, Massachusetts, 02144, United States", "category": "place", "type": "house", "latlong": "42.39669175510204,-71.12235483673469" }, "geometry": { "type": "Point", "coordinates": [ -71.122354836734687, 42.39669175510204 ] } },
{ "type": "Feature", "properties": { "Street Address": "286 SOMERVILLE AVE", "City": "Somerville ", "State": "MA", "Country": "United States ", "result_num": "0", "osm_id": "29642762", "display_name": "Dunkin', 282;286, Somerville Avenue, Union Square, Somerville, Middlesex County, Massachusetts, 02143, United States", "category": "amenity", "type": "fast_food", "latlong": "42.378780649999996,-71.09464007932812" }, "geometry": { "type": "Point", "coordinates": [ -71.094640079328116, 42.37878065 ] } },
{ "type": "Feature", "properties": { "Street Address": "256 ELM ST", "City": "Somerville ", "State": "MA", "Country": "United States ", "result_num": "0", "osm_id": "6110093488", "display_name": "Elm Street Taproom, 256, Elm Street, Davis Square, Somerville, Middlesex County, Massachusetts, 02144, United States", "category": "amenity", "type": "pub", "latlong": "42.3955064,-71.1221467" }, "geometry": { "type": "Point", "coordinates": [ -71.1221467, 42.3955064 ] } },
{ "type": "Feature", "properties": { "Street Address": "5 DAVIS SQ", "City": "Somerville ", "State": "MA", "Country": "United States ", "result_num": "0", "osm_id": "93168579", "display_name": "5, Davis Square, Somerville, Middlesex County, Massachusetts, 02144, United States", "category": "place", "type": "house", "latlong": "42.39669175510204,-71.12235483673469" }, "geometry": { "type": "Point", "coordinates": [ -71.122354836734687, 42.39669175510204 ] } },
{ "type": "Feature", "properties": { "Street Address": "5 DAVIS SQ", "City": "Somerville ", "State": "MA", "Country": "United States ", "result_num": "0", "osm_id": "93168579", "display_name": "5, Davis Square, Somerville, Middlesex County, Massachusetts, 02144, United States", "category": "place", "type": "house", "latlong": "42.39669175510204,-71.12235483673469" }, "geometry": { "type": "Point", "coordinates": [ -71.122354836734687, 42.39669175510204 ] } },
{ "type": "Feature", "properties": { "Street Address": "256 ELM ST", "City": "Somerville ", "State": "MA", "Country": "United States ", "result_num": "0", "osm_id": "6110093488", "display_name": "Elm Street Taproom, 256, Elm Street, Davis Square, Somerville, Middlesex County, Massachusetts, 02144, United States", "category": "amenity", "type": "pub", "latlong": "42.3955064,-71.1221467" }, "geometry": { "type": "Point", "coordinates": [ -71.1221467, 42.3955064 ] } },
{ "type": "Feature", "properties": { "Street Address": "5 DAVIS SQ", "City": "Somerville ", "State": "MA", "Country": "United States ", "result_num": "0", "osm_id": "93168579", "display_name": "5, Davis Square, Somerville, Middlesex County, Massachusetts, 02144, United States", "category": "place", "type": "house", "latlong": "42.39669175510204,-71.12235483673469" }, "geometry": { "type": "Point", "coordinates": [ -71.122354836734687, 42.39669175510204 ] } },
{ "type": "Feature", "properties": { "Street Address": "5 DAVIS SQ", "City": "Somerville ", "State": "MA", "Country": "United States ", "result_num": "0", "osm_id": "93168579", "display_name": "5, Davis Square, Somerville, Middlesex County, Massachusetts, 02144, United States", "category": "place", "type": "house", "latlong": "42.39669175510204,-71.12235483673469" }, "geometry": { "type": "Point", "coordinates": [ -71.122354836734687, 42.39669175510204 ] } },
{ "type": "Feature", "properties": { "Street Address": "256 ELM ST", "City": "Somerville ", "State": "MA", "Country": "United States ", "result_num": "0", "osm_id": "6110093488", "display_name": "Elm Street Taproom, 256, Elm Street, Davis Square, Somerville, Middlesex County, Massachusetts, 02144, United States", "category": "amenity", "type": "pub", "latlong": "42.3955064,-71.1221467" }, "geometry": { "type": "Point", "coordinates": [ -71.1221467, 42.3955064 ] } },
{ "type": "Feature", "properties": { "Street Address": "5 DAVIS SQ", "City": "Somerville ", "State": "MA", "Country": "United States ", "result_num": "0", "osm_id": "93168579", "display_name": "5, Davis Square, Somerville, Middlesex County, Massachusetts, 02144, United States", "category": "place", "type": "house", "latlong": "42.39669175510204,-71.12235483673469" }, "geometry": { "type": "Point", "coordinates": [ -71.122354836734687, 42.39669175510204 ] } },
{ "type": "Feature", "properties": { "Street Address": "215 HIGHLAND AVE", "City": "Somerville ", "State": "MA", "Country": "United States ", "result_num": "0", "osm_id": "8605381", "display_name": "215, Highland Avenue, Spring Hill, Somerville, Middlesex County, Massachusetts, 02143, United States", "category": "place", "type": "house", "latlong": "42.39015,-71.10761133333334" }, "geometry": { "type": "Point", "coordinates": [ -71.107611333333338, 42.39015 ] } },
{ "type": "Feature", "properties": { "Street Address": "5 DAVIS SQ", "City": "Somerville ", "State": "MA", "Country": "United States ", "result_num": "0", "osm_id": "93168579", "display_name": "5, Davis Square, Somerville, Middlesex County, Massachusetts, 02144, United States", "category": "place", "type": "house", "latlong": "42.39669175510204,-71.12235483673469" }, "geometry": { "type": "Point", "coordinates": [ -71.122354836734687, 42.39669175510204 ] } },
{ "type": "Feature", "properties": { "Street Address": "5 DAVIS SQ", "City": "Somerville ", "State": "MA", "Country": "United States ", "result_num": "0", "osm_id": "93168579", "display_name": "5, Davis Square, Somerville, Middlesex County, Massachusetts, 02144, United States", "category": "place", "type": "house", "latlong": "42.39669175510204,-71.12235483673469" }, "geometry": { "type": "Point", "coordinates": [ -71.122354836734687, 42.39669175510204 ] } },
{ "type": "Feature", "properties": { "Street Address": "256 ELM ST", "City": "Somerville ", "State": "MA", "Country": "United States ", "result_num": "0", "osm_id": "6110093488", "display_name": "Elm Street Taproom, 256, Elm Street, Davis Square, Somerville, Middlesex County, Massachusetts, 02144, United States", "category": "amenity", "type": "pub", "latlong": "42.3955064,-71.1221467" }, "geometry": { "type": "Point", "coordinates": [ -71.1221467, 42.3955064 ] } },
{ "type": "Feature", "properties": { "Street Address": "5 DAVIS SQ", "City": "Somerville ", "State": "MA", "Country": "United States ", "result_num": "0", "osm_id": "93168579", "display_name": "5, Davis Square, Somerville, Middlesex County, Massachusetts, 02144, United States", "category": "place", "type": "house", "latlong": "42.39669175510204,-71.12235483673469" }, "geometry": { "type": "Point", "coordinates": [ -71.122354836734687, 42.39669175510204 ] } },
{ "type": "Feature", "properties": { "Street Address": "256 ELM ST", "City": "Somerville ", "State": "MA", "Country": "United States ", "result_num": "0", "osm_id": "6110093488", "display_name": "Elm Street Taproom, 256, Elm Street, Davis Square, Somerville, Middlesex County, Massachusetts, 02144, United States", "category": "amenity", "type": "pub", "latlong": "42.3955064,-71.1221467" }, "geometry": { "type": "Point", "coordinates": [ -71.1221467, 42.3955064 ] } },
{ "type": "Feature", "properties": { "Street Address": "5 DAVIS SQ", "City": "Somerville ", "State": "MA", "Country": "United States ", "result_num": "0", "osm_id": "93168579", "display_name": "5, Davis Square, Somerville, Middlesex County, Massachusetts, 02144, United States", "category": "place", "type": "house", "latlong": "42.39669175510204,-71.12235483673469" }, "geometry": { "type": "Point", "coordinates": [ -71.122354836734687, 42.39669175510204 ] } },
{ "type": "Feature", "properties": { "Street Address": "136 HIGHLAND AVE", "City": "Somerville ", "State": "MA", "Country": "United States ", "result_num": "0", "osm_id": "29825832", "display_name": "136, Highland Avenue, Spring Hill, Somerville, Middlesex County, Massachusetts, 02143, United States", "category": "building", "type": "apartments", "latlong": "42.3876983,-71.10210557370732" }, "geometry": { "type": "Point", "coordinates": [ -71.10210557370732, 42.3876983 ] } },
{ "type": "Feature", "properties": { "Street Address": "5 DAVIS SQ", "City": "Somerville ", "State": "MA", "Country": "United States ", "result_num": "0", "osm_id": "93168579", "display_name": "5, Davis Square, Somerville, Middlesex County, Massachusetts, 02144, United States", "category": "place", "type": "house", "latlong": "42.39669175510204,-71.12235483673469" }, "geometry": { "type": "Point", "coordinates": [ -71.122354836734687, 42.39669175510204 ] } },
{ "type": "Feature", "properties": { "Street Address": "5 DAVIS SQ", "City": "Somerville ", "State": "MA", "Country": "United States ", "result_num": "0", "osm_id": "93168579", "display_name": "5, Davis Square, Somerville, Middlesex County, Massachusetts, 02144, United States", "category": "place", "type": "house", "latlong": "42.39669175510204,-71.12235483673469" }, "geometry": { "type": "Point", "coordinates": [ -71.122354836734687, 42.39669175510204 ] } },
{ "type": "Feature", "properties": { "Street Address": "256 ELM ST", "City": "Somerville ", "State": "MA", "Country": "United States ", "result_num": "0", "osm_id": "6110093488", "display_name": "Elm Street Taproom, 256, Elm Street, Davis Square, Somerville, Middlesex County, Massachusetts, 02144, United States", "category": "amenity", "type": "pub", "latlong": "42.3955064,-71.1221467" }, "geometry": { "type": "Point", "coordinates": [ -71.1221467, 42.3955064 ] } },
{ "type": "Feature", "properties": { "Street Address": "5 DAVIS SQ", "City": "Somerville ", "State": "MA", "Country": "United States ", "result_num": "0", "osm_id": "93168579", "display_name": "5, Davis Square, Somerville, Middlesex County, Massachusetts, 02144, United States", "category": "place", "type": "house", "latlong": "42.39669175510204,-71.12235483673469" }, "geometry": { "type": "Point", "coordinates": [ -71.122354836734687, 42.39669175510204 ] } },
{ "type": "Feature", "properties": { "Street Address": "5 DAVIS SQ", "City": "Somerville ", "State": "MA", "Country": "United States ", "result_num": "0", "osm_id": "93168579", "display_name": "5, Davis Square, Somerville, Middlesex County, Massachusetts, 02144, United States", "category": "place", "type": "house", "latlong": "42.39669175510204,-71.12235483673469" }, "geometry": { "type": "Point", "coordinates": [ -71.122354836734687, 42.39669175510204 ] } },
{ "type": "Feature", "properties": { "Street Address": "5 DAVIS SQ", "City": "Somerville ", "State": "MA", "Country": "United States ", "result_num": "0", "osm_id": "93168579", "display_name": "5, Davis Square, Somerville, Middlesex County, Massachusetts, 02144, United States", "category": "place", "type": "house", "latlong": "42.39669175510204,-71.12235483673469" }, "geometry": { "type": "Point", "coordinates": [ -71.122354836734687, 42.39669175510204 ] } },
{ "type": "Feature", "properties": { "Street Address": "136 HIGHLAND AVE", "City": "Somerville ", "State": "MA", "Country": "United States ", "result_num": "0", "osm_id": "29825832", "display_name": "136, Highland Avenue, Spring Hill, Somerville, Middlesex County, Massachusetts, 02143, United States", "category": "building", "type": "apartments", "latlong": "42.3876983,-71.10210557370732" }, "geometry": { "type": "Point", "coordinates": [ -71.10210557370732, 42.3876983 ] } },
{ "type": "Feature", "properties": { "Street Address": "5 DAVIS SQ", "City": "Somerville ", "State": "MA", "Country": "United States ", "result_num": "0", "osm_id": "93168579", "display_name": "5, Davis Square, Somerville, Middlesex County, Massachusetts, 02144, United States", "category": "place", "type": "house", "latlong": "42.39669175510204,-71.12235483673469" }, "geometry": { "type": "Point", "coordinates": [ -71.122354836734687, 42.39669175510204 ] } },
{ "type": "Feature", "properties": { "Street Address": "355 BROADWAY", "City": "Somerville ", "State": "MA", "Country": "United States ", "result_num": "0", "osm_id": "29937349", "display_name": "355, Broadway, Winter Hill, Somerville, Middlesex County, Massachusetts, 02145, United States", "category": "building", "type": "apartments", "latlong": "42.39391275,-71.09528699962239" }, "geometry": { "type": "Point", "coordinates": [ -71.095286999622388, 42.39391275 ] } },
{ "type": "Feature", "properties": { "Street Address": "256 ELM ST", "City": "Somerville ", "State": "MA", "Country": "United States ", "result_num": "0", "osm_id": "6110093488", "display_name": "Elm Street Taproom, 256, Elm Street, Davis Square, Somerville, Middlesex County, Massachusetts, 02144, United States", "category": "amenity", "type": "pub", "latlong": "42.3955064,-71.1221467" }, "geometry": { "type": "Point", "coordinates": [ -71.1221467, 42.3955064 ] } },
{ "type": "Feature", "properties": { "Street Address": "5 DAVIS SQ", "City": "Somerville ", "State": "MA", "Country": "United States ", "result_num": "0", "osm_id": "93168579", "display_name": "5, Davis Square, Somerville, Middlesex County, Massachusetts, 02144, United States", "category": "place", "type": "house", "latlong": "42.39669175510204,-71.12235483673469" }, "geometry": { "type": "Point", "coordinates": [ -71.122354836734687, 42.39669175510204 ] } },
{ "type": "Feature", "properties": { "Street Address": "2 HIGHLAND AVE", "City": "Somerville ", "State": "MA", "Country": "United States ", "result_num": "0", "osm_id": "29739864", "display_name": "2, Highland Avenue, Prospect Hill, Somerville, Middlesex County, Massachusetts, 02143, United States", "category": "building", "type": "retail", "latlong": "42.384331849999995,-71.09255583520822" }, "geometry": { "type": "Point", "coordinates": [ -71.092555835208216, 42.38433185 ] } },
{ "type": "Feature", "properties": { "Street Address": "256 ELM ST", "City": "Somerville ", "State": "MA", "Country": "United States ", "result_num": "0", "osm_id": "6110093488", "display_name": "Elm Street Taproom, 256, Elm Street, Davis Square, Somerville, Middlesex County, Massachusetts, 02144, United States", "category": "amenity", "type": "pub", "latlong": "42.3955064,-71.1221467" }, "geometry": { "type": "Point", "coordinates": [ -71.1221467, 42.3955064 ] } },
{ "type": "Feature", "properties": { "Street Address": "256 ELM ST", "City": "Somerville ", "State": "MA", "Country": "United States ", "result_num": "0", "osm_id": "6110093488", "display_name": "Elm Street Taproom, 256, Elm Street, Davis Square, Somerville, Middlesex County, Massachusetts, 02144, United States", "category": "amenity", "type": "pub", "latlong": "42.3955064,-71.1221467" }, "geometry": { "type": "Point", "coordinates": [ -71.1221467, 42.3955064 ] } },
{ "type": "Feature", "properties": { "Street Address": "5 DAVIS SQ", "City": "Somerville ", "State": "MA", "Country": "United States ", "result_num": "0", "osm_id": "93168579", "display_name": "5, Davis Square, Somerville, Middlesex County, Massachusetts, 02144, United States", "category": "place", "type": "house", "latlong": "42.39669175510204,-71.12235483673469" }, "geometry": { "type": "Point", "coordinates": [ -71.122354836734687, 42.39669175510204 ] } },
{ "type": "Feature", "properties": { "Street Address": "355 BROADWAY", "City": "Somerville ", "State": "MA", "Country": "United States ", "result_num": "0", "osm_id": "29937349", "display_name": "355, Broadway, Winter Hill, Somerville, Middlesex County, Massachusetts, 02145, United States", "category": "building", "type": "apartments", "latlong": "42.39391275,-71.09528699962239" }, "geometry": { "type": "Point", "coordinates": [ -71.095286999622388, 42.39391275 ] } },
{ "type": "Feature", "properties": { "Street Address": "256 ELM ST", "City": "Somerville ", "State": "MA", "Country": "United States ", "result_num": "0", "osm_id": "6110093488", "display_name": "Elm Street Taproom, 256, Elm Street, Davis Square, Somerville, Middlesex County, Massachusetts, 02144, United States", "category": "amenity", "type": "pub", "latlong": "42.3955064,-71.1221467" }, "geometry": { "type": "Point", "coordinates": [ -71.1221467, 42.3955064 ] } },
{ "type": "Feature", "properties": { "Street Address": "5 DAVIS SQ", "City": "Somerville ", "State": "MA", "Country": "United States ", "result_num": "0", "osm_id": "93168579", "display_name": "5, Davis Square, Somerville, Middlesex County, Massachusetts, 02144, United States", "category": "place", "type": "house", "latlong": "42.39669175510204,-71.12235483673469" }, "geometry": { "type": "Point", "coordinates": [ -71.122354836734687, 42.39669175510204 ] } },
{ "type": "Feature", "properties": { "Street Address": "594 SOMERVILLE AVE", "City": "Somerville ", "State": "MA", "Country": "United States ", "result_num": "0", "osm_id": "355792803", "display_name": "594 Somerville Ave, Somerville Avenue, Wilson Square, Somerville, Middlesex County, Massachusetts, 02143, United States", "category": "highway", "type": "bus_stop", "latlong": "42.383778,-71.109215" }, "geometry": { "type": "Point", "coordinates": [ -71.109215, 42.383778 ] } },
{ "type": "Feature", "properties": { "Street Address": "299 BROADWAY", "City": "Somerville ", "State": "MA", "Country": "United States ", "result_num": "0", "osm_id": "29642236", "display_name": "299, Broadway, Ten Hills, Somerville, Middlesex County, Massachusetts, 02145, United States", "category": "building", "type": "retail", "latlong": "42.3922904,-71.09184976591543" }, "geometry": { "type": "Point", "coordinates": [ -71.091849765915427, 42.3922904 ] } },
{ "type": "Feature", "properties": { "Street Address": "62 HIGHLAND AVE", "City": "Somerville ", "State": "MA", "Country": "United States ", "result_num": "0", "osm_id": "29642461", "display_name": "62, Highland Avenue, Spring Hill, Somerville, Middlesex County, Massachusetts, 02143, United States", "category": "building", "type": "yes", "latlong": "42.3855958,-71.0958716004748" }, "geometry": { "type": "Point", "coordinates": [ -71.095871600474794, 42.3855958 ] } },
{ "type": "Feature", "properties": { "Street Address": "288 BROADWAY", "City": "Somerville ", "State": "MA", "Country": "United States ", "result_num": "0", "osm_id": "29820246", "display_name": "284;286;288, Broadway, East Somerville, Somerville, Middlesex County, Massachusetts, 02145, United States", "category": "building", "type": "retail", "latlong": "42.3916828,-71.09225049221519" }, "geometry": { "type": "Point", "coordinates": [ -71.092250492215186, 42.3916828 ] } },
{ "type": "Feature", "properties": { "Street Address": "5 DAVIS SQ", "City": "Somerville ", "State": "MA", "Country": "United States ", "result_num": "0", "osm_id": "93168579", "display_name": "5, Davis Square, Somerville, Middlesex County, Massachusetts, 02144, United States", "category": "place", "type": "house", "latlong": "42.39669175510204,-71.12235483673469" }, "geometry": { "type": "Point", "coordinates": [ -71.122354836734687, 42.39669175510204 ] } },
{ "type": "Feature", "properties": { "Street Address": "5 DAVIS SQ", "City": "Somerville ", "State": "MA", "Country": "United States ", "result_num": "0", "osm_id": "93168579", "display_name": "5, Davis Square, Somerville, Middlesex County, Massachusetts, 02144, United States", "category": "place", "type": "house", "latlong": "42.39669175510204,-71.12235483673469" }, "geometry": { "type": "Point", "coordinates": [ -71.122354836734687, 42.39669175510204 ] } },
{ "type": "Feature", "properties": { "Street Address": "5 DAVIS SQ", "City": "Somerville ", "State": "MA", "Country": "United States ", "result_num": "0", "osm_id": "93168579", "display_name": "5, Davis Square, Somerville, Middlesex County, Massachusetts, 02144, United States", "category": "place", "type": "house", "latlong": "42.39669175510204,-71.12235483673469" }, "geometry": { "type": "Point", "coordinates": [ -71.122354836734687, 42.39669175510204 ] } },
{ "type": "Feature", "properties": { "Street Address": "299 BROADWAY", "City": "Somerville ", "State": "MA", "Country": "United States ", "result_num": "0", "osm_id": "29642236", "display_name": "299, Broadway, Ten Hills, Somerville, Middlesex County, Massachusetts, 02145, United States", "category": "building", "type": "retail", "latlong": "42.3922904,-71.09184976591543" }, "geometry": { "type": "Point", "coordinates": [ -71.091849765915427, 42.3922904 ] } },
{ "type": "Feature", "properties": { "Street Address": "2 HIGHLAND AVE", "City": "Somerville ", "State": "MA", "Country": "United States ", "result_num": "0", "osm_id": "29739864", "display_name": "2, Highland Avenue, Prospect Hill, Somerville, Middlesex County, Massachusetts, 02143, United States", "category": "building", "type": "retail", "latlong": "42.384331849999995,-71.09255583520822" }, "geometry": { "type": "Point", "coordinates": [ -71.092555835208216, 42.38433185 ] } },
{ "type": "Feature", "properties": { "Street Address": "5 DAVIS SQ", "City": "Somerville ", "State": "MA", "Country": "United States ", "result_num": "0", "osm_id": "93168579", "display_name": "5, Davis Square, Somerville, Middlesex County, Massachusetts, 02144, United States", "category": "place", "type": "house", "latlong": "42.39669175510204,-71.12235483673469" }, "geometry": { "type": "Point", "coordinates": [ -71.122354836734687, 42.39669175510204 ] } },
{ "type": "Feature", "properties": { "Street Address": "256 ELM ST", "City": "Somerville ", "State": "MA", "Country": "United States ", "result_num": "0", "osm_id": "6110093488", "display_name": "Elm Street Taproom, 256, Elm Street, Davis Square, Somerville, Middlesex County, Massachusetts, 02144, United States", "category": "amenity", "type": "pub", "latlong": "42.3955064,-71.1221467" }, "geometry": { "type": "Point", "coordinates": [ -71.1221467, 42.3955064 ] } },
{ "type": "Feature", "properties": { "Street Address": "5 DAVIS SQ", "City": "Somerville ", "State": "MA", "Country": "United States ", "result_num": "0", "osm_id": "93168579", "display_name": "5, Davis Square, Somerville, Middlesex County, Massachusetts, 02144, United States", "category": "place", "type": "house", "latlong": "42.39669175510204,-71.12235483673469" }, "geometry": { "type": "Point", "coordinates": [ -71.122354836734687, 42.39669175510204 ] } },
{ "type": "Feature", "properties": { "Street Address": "5 DAVIS SQ", "City": "Somerville ", "State": "MA", "Country": "United States ", "result_num": "0", "osm_id": "93168579", "display_name": "5, Davis Square, Somerville, Middlesex County, Massachusetts, 02144, United States", "category": "place", "type": "house", "latlong": "42.39669175510204,-71.12235483673469" }, "geometry": { "type": "Point", "coordinates": [ -71.122354836734687, 42.39669175510204 ] } },
{ "type": "Feature", "properties": { "Street Address": "288 BROADWAY", "City": "Somerville ", "State": "MA", "Country": "United States ", "result_num": "0", "osm_id": "29820246", "display_name": "284;286;288, Broadway, East Somerville, Somerville, Middlesex County, Massachusetts, 02145, United States", "category": "building", "type": "retail", "latlong": "42.3916828,-71.09225049221519" }, "geometry": { "type": "Point", "coordinates": [ -71.092250492215186, 42.3916828 ] } },
{ "type": "Feature", "properties": { "Street Address": "5 DAVIS SQ", "City": "Somerville ", "State": "MA", "Country": "United States ", "result_num": "0", "osm_id": "93168579", "display_name": "5, Davis Square, Somerville, Middlesex County, Massachusetts, 02144, United States", "category": "place", "type": "house", "latlong": "42.39669175510204,-71.12235483673469" }, "geometry": { "type": "Point", "coordinates": [ -71.122354836734687, 42.39669175510204 ] } },
{ "type": "Feature", "properties": { "Street Address": "1147 BROADWAY", "City": "Somerville ", "State": "MA", "Country": "United States ", "result_num": "0", "osm_id": "302110862", "display_name": "1147, Broadway, Teele Square, Somerville, Middlesex County, Massachusetts, 02144, United States", "category": "place", "type": "house", "latlong": "42.40327818181818,-71.12699075757575" }, "geometry": { "type": "Point", "coordinates": [ -71.126990757575754, 42.40327818181818 ] } },
{ "type": "Feature", "properties": { "Street Address": "299 BROADWAY", "City": "Somerville ", "State": "MA", "Country": "United States ", "result_num": "0", "osm_id": "29642236", "display_name": "299, Broadway, Ten Hills, Somerville, Middlesex County, Massachusetts, 02145, United States", "category": "building", "type": "retail", "latlong": "42.3922904,-71.09184976591543" }, "geometry": { "type": "Point", "coordinates": [ -71.091849765915427, 42.3922904 ] } },
{ "type": "Feature", "properties": { "Street Address": "5 DAVIS SQ", "City": "Somerville ", "State": "MA", "Country": "United States ", "result_num": "0", "osm_id": "93168579", "display_name": "5, Davis Square, Somerville, Middlesex County, Massachusetts, 02144, United States", "category": "place", "type": "house", "latlong": "42.39669175510204,-71.12235483673469" }, "geometry": { "type": "Point", "coordinates": [ -71.122354836734687, 42.39669175510204 ] } },
{ "type": "Feature", "properties": { "Street Address": "299 BROADWAY", "City": "Somerville ", "State": "MA", "Country": "United States ", "result_num": "0", "osm_id": "29642236", "display_name": "299, Broadway, Ten Hills, Somerville, Middlesex County, Massachusetts, 02145, United States", "category": "building", "type": "retail", "latlong": "42.3922904,-71.09184976591543" }, "geometry": { "type": "Point", "coordinates": [ -71.091849765915427, 42.3922904 ] } },
{ "type": "Feature", "properties": { "Street Address": "2 HIGHLAND AVE", "City": "Somerville ", "State": "MA", "Country": "United States ", "result_num": "0", "osm_id": "29739864", "display_name": "2, Highland Avenue, Prospect Hill, Somerville, Middlesex County, Massachusetts, 02143, United States", "category": "building", "type": "retail", "latlong": "42.384331849999995,-71.09255583520822" }, "geometry": { "type": "Point", "coordinates": [ -71.092555835208216, 42.38433185 ] } },
{ "type": "Feature", "properties": { "Street Address": "1147 BROADWAY", "City": "Somerville ", "State": "MA", "Country": "United States ", "result_num": "0", "osm_id": "302110862", "display_name": "1147, Broadway, Teele Square, Somerville, Middlesex County, Massachusetts, 02144, United States", "category": "place", "type": "house", "latlong": "42.40327818181818,-71.12699075757575" }, "geometry": { "type": "Point", "coordinates": [ -71.126990757575754, 42.40327818181818 ] } },
{ "type": "Feature", "properties": { "Street Address": "5 DAVIS SQ", "City": "Somerville ", "State": "MA", "Country": "United States ", "result_num": "0", "osm_id": "93168579", "display_name": "5, Davis Square, Somerville, Middlesex County, Massachusetts, 02144, United States", "category": "place", "type": "house", "latlong": "42.39669175510204,-71.12235483673469" }, "geometry": { "type": "Point", "coordinates": [ -71.122354836734687, 42.39669175510204 ] } },
{ "type": "Feature", "properties": { "Street Address": "384 SOMERVILLE AVE", "City": "Somerville ", "State": "MA", "Country": "United States ", "result_num": "0", "osm_id": "524588879", "display_name": "384, Somerville Avenue, Union Square, Somerville, Middlesex County, Massachusetts, 02143, United States", "category": "place", "type": "house", "latlong": "42.38128534349218,-71.10010414758601" }, "geometry": { "type": "Point", "coordinates": [ -71.100104147586009, 42.381285343492181 ] } },
{ "type": "Feature", "properties": { "Street Address": "288 BROADWAY", "City": "Somerville ", "State": "MA", "Country": "United States ", "result_num": "0", "osm_id": "29820246", "display_name": "284;286;288, Broadway, East Somerville, Somerville, Middlesex County, Massachusetts, 02145, United States", "category": "building", "type": "retail", "latlong": "42.3916828,-71.09225049221519" }, "geometry": { "type": "Point", "coordinates": [ -71.092250492215186, 42.3916828 ] } },
{ "type": "Feature", "properties": { "Street Address": "299 BROADWAY", "City": "Somerville ", "State": "MA", "Country": "United States ", "result_num": "0", "osm_id": "29642236", "display_name": "299, Broadway, Ten Hills, Somerville, Middlesex County, Massachusetts, 02145, United States", "category": "building", "type": "retail", "latlong": "42.3922904,-71.09184976591543" }, "geometry": { "type": "Point", "coordinates": [ -71.091849765915427, 42.3922904 ] } },
{ "type": "Feature", "properties": { "Street Address": "299 BROADWAY", "City": "Somerville ", "State": "MA", "Country": "United States ", "result_num": "0", "osm_id": "29642236", "display_name": "299, Broadway, Ten Hills, Somerville, Middlesex County, Massachusetts, 02145, United States", "category": "building", "type": "retail", "latlong": "42.3922904,-71.09184976591543" }, "geometry": { "type": "Point", "coordinates": [ -71.091849765915427, 42.3922904 ] } },
{ "type": "Feature", "properties": { "Street Address": "5 DAVIS SQ", "City": "Somerville ", "State": "MA", "Country": "United States ", "result_num": "0", "osm_id": "93168579", "display_name": "5, Davis Square, Somerville, Middlesex County, Massachusetts, 02144, United States", "category": "place", "type": "house", "latlong": "42.39669175510204,-71.12235483673469" }, "geometry": { "type": "Point", "coordinates": [ -71.122354836734687, 42.39669175510204 ] } },
{ "type": "Feature", "properties": { "Street Address": "299 BROADWAY", "City": "Somerville ", "State": "MA", "Country": "United States ", "result_num": "0", "osm_id": "29642236", "display_name": "299, Broadway, Ten Hills, Somerville, Middlesex County, Massachusetts, 02145, United States", "category": "building", "type": "retail", "latlong": "42.3922904,-71.09184976591543" }, "geometry": { "type": "Point", "coordinates": [ -71.091849765915427, 42.3922904 ] } },
{ "type": "Feature", "properties": { "Street Address": "221 PEARL ST", "City": "Somerville ", "State": "MA", "Country": "United States ", "result_num": "0", "osm_id": "29716289", "display_name": "219;221;223;225, Pearl Street, Prospect Hill, Somerville, Middlesex County, Massachusetts, 02143, United States", "category": "building", "type": "apartments", "latlong": "42.3876834,-71.09369755118911" }, "geometry": { "type": "Point", "coordinates": [ -71.093697551189109, 42.3876834 ] } }
]
}
