{
"type": "FeatureCollection",
"name": "Overgrowth Tickets 2023 ",
"crs": { "type": "name", "properties": { "name": "urn:ogc:def:crs:OGC:1.3:CRS84" } },
"features": [
{ "type": "Feature", "properties": { "Street Address": "1 MEAD ST", "City": "Somerville", "State": "MA", "Zip Code": "02143", "result_num": "0", "osm_id": "29792276", "display_name": "1, Mead Street, West Somerville, Somerville, Middlesex County, Massachusetts, 02140, United States", "category": "building", "type": "apartments", "latlong": "42.4002754,-71.12734288979" }, "geometry": { "type": "Point", "coordinates": [ -71.12734288979, 42.4002754 ] } },
{ "type": "Feature", "properties": { "Street Address": "52 BURNSIDE AVE", "City": "Somerville", "State": "MA", "Zip Code": "02143", "result_num": "0", "osm_id": "29683079", "display_name": "52, Burnside Avenue, Wilson Square, Somerville, Middlesex County, Massachusetts, 02144, United States", "category": "building", "type": "yes", "latlong": "42.39194755,-71.1166969" }, "geometry": { "type": "Point", "coordinates": [ -71.1166969, 42.39194755 ] } },
{ "type": "Feature", "properties": { "Street Address": "161 BROADWAY", "City": "Somerville", "State": "MA", "Zip Code": "02143", "result_num": "0", "osm_id": "29785443", "display_name": "161, Broadway, East Somerville, Somerville, Middlesex County, Massachusetts, 02145, United States", "category": "building", "type": "yes", "latlong": "42.388802299999995,-71.085255254281" }, "geometry": { "type": "Point", "coordinates": [ -71.085255254280995, 42.3888023 ] } },
{ "type": "Feature", "properties": { "Street Address": "406 MCGRATH HWY", "City": "Somerville", "State": "MA", "Zip Code": "02143", "result_num": "0", "osm_id": "760500217", "display_name": "406, McGrath Highway, Prospect Hill, Somerville, Middlesex County, Massachusetts, 02143, United States", "category": "place", "type": "house", "latlong": "42.382900778982524,-71.0913481904062" }, "geometry": { "type": "Point", "coordinates": [ -71.091348190406194, 42.382900778982524 ] } },
{ "type": "Feature", "properties": { "Street Address": "414 MCGRATH HWY", "City": "Somerville", "State": "MA", "Zip Code": "02143", "result_num": "0", "osm_id": "29825857", "display_name": "414, McGrath Highway, Prospect Hill, Somerville, Middlesex County, Massachusetts, 02143, United States", "category": "building", "type": "yes", "latlong": "42.38211815,-71.09091821128789" }, "geometry": { "type": "Point", "coordinates": [ -71.090918211287885, 42.38211815 ] } },
{ "type": "Feature", "properties": { "Street Address": "229 PEARL ST", "City": "Somerville", "State": "MA", "Zip Code": "02143", "result_num": "0", "osm_id": "29642383", "display_name": "229, Pearl Street, Prospect Hill, Somerville, Middlesex County, Massachusetts, 02143, United States", "category": "building", "type": "detached", "latlong": "42.387809149999995,-71.0941435365323" }, "geometry": { "type": "Point", "coordinates": [ -71.0941435365323, 42.38780915 ] } },
{ "type": "Feature", "properties": { "Street Address": "181 PEARL ST", "City": "Somerville", "State": "MA", "Zip Code": "02143", "result_num": "0", "osm_id": "29789930", "display_name": "181, Pearl Street, East Somerville, Somerville, Middlesex County, Massachusetts, 02145, United States", "category": "building", "type": "yes", "latlong": "42.3867991,-71.09090850457738" }, "geometry": { "type": "Point", "coordinates": [ -71.090908504577385, 42.3867991 ] } },
{ "type": "Feature", "properties": { "Street Address": "84 PROSPECT ST", "City": "Somerville", "State": "MA", "Zip Code": "02143", "result_num": "0", "osm_id": "29537995", "display_name": "84, Prospect Street, Union Square, Somerville, Middlesex County, Massachusetts, 02143, United States", "category": "building", "type": "yes", "latlong": "42.37592015,-71.09593404560114" }, "geometry": { "type": "Point", "coordinates": [ -71.09593404560114, 42.37592015 ] } },
{ "type": "Feature", "properties": { "Street Address": "216 SUMMER ST", "City": "Somerville", "State": "MA", "Zip Code": "02143", "result_num": "0", "osm_id": "29532168", "display_name": "216, Summer Street, Spring Hill, Somerville, Middlesex County, Massachusetts, 02143, United States", "category": "building", "type": "yes", "latlong": "42.38838145,-71.11086722773115" }, "geometry": { "type": "Point", "coordinates": [ -71.110867227731148, 42.38838145 ] } },
{ "type": "Feature", "properties": { "Street Address": "16 CLEVELAND ST", "City": "Somerville", "State": "MA", "Zip Code": "02143", "result_num": "0", "osm_id": "29825071", "display_name": "16;18, Cleveland Street, Spring Hill, Somerville, Middlesex County, Massachusetts, 02143, United States", "category": "building", "type": "yes", "latlong": "42.38488005,-71.10677789456912" }, "geometry": { "type": "Point", "coordinates": [ -71.10677789456912, 42.38488005 ] } },
{ "type": "Feature", "properties": { "Street Address": "125 LOWELL ST", "City": "Somerville", "State": "MA", "Zip Code": "02143", "result_num": "0", "osm_id": "29514680", "display_name": "Abandoned Nursing School, 125, Lowell Street, Spring Hill, Somerville, Middlesex County, Massachusetts, 02143, United States", "category": "building", "type": "commercial", "latlong": "42.38843515,-71.10860462829862" }, "geometry": { "type": "Point", "coordinates": [ -71.108604628298622, 42.38843515 ] } },
{ "type": "Feature", "properties": { "Street Address": "243 HIGHLAND AVE", "City": "Somerville", "State": "MA", "Zip Code": "02143", "result_num": "0", "osm_id": "29514531", "display_name": "243, Highland Avenue, Spring Hill, Somerville, Middlesex County, Massachusetts, 02143, United States", "category": "building", "type": "yes", "latlong": "42.39112165,-71.10955214621694" }, "geometry": { "type": "Point", "coordinates": [ -71.109552146216942, 42.39112165 ] } },
{ "type": "Feature", "properties": { "Street Address": "8 FAIRVIEW TERR", "City": "Somerville", "State": "MA", "Zip Code": "02143", "result_num": "0", "osm_id": "29742210", "display_name": "8, Fairview Terrace, Winter Hill, Somerville, Middlesex County, Massachusetts, 02143, United States", "category": "building", "type": "yes", "latlong": "42.3932911,-71.09743231587771" }, "geometry": { "type": "Point", "coordinates": [ -71.097432315877711, 42.3932911 ] } },
{ "type": "Feature", "properties": { "Street Address": "421 MEDFORD ST", "City": "Somerville", "State": "MA", "Zip Code": "02143", "result_num": "0", "osm_id": "29685887", "display_name": "421, Medford Street, Winter Hill, Somerville, Middlesex County, Massachusetts, 02143, United States", "category": "building", "type": "yes", "latlong": "42.3919527,-71.09976989527974" }, "geometry": { "type": "Point", "coordinates": [ -71.099769895279735, 42.3919527 ] } },
{ "type": "Feature", "properties": { "Street Address": "11 MACARTHUR ST", "City": "Somerville", "State": "MA", "Zip Code": "02143", "result_num": "0", "osm_id": "29519740", "display_name": "11, MacArthur Street, East Somerville, Somerville, Middlesex County, Massachusetts, 02145, United States", "category": "building", "type": "yes", "latlong": "42.3890119,-71.0883708" }, "geometry": { "type": "Point", "coordinates": [ -71.0883708, 42.3890119 ] } },
{ "type": "Feature", "properties": { "Street Address": "10 INDIANA AVE", "City": "Somerville", "State": "MA", "Zip Code": "02143", "result_num": "0", "osm_id": "29519828", "display_name": "10;12, Indiana Avenue, East Somerville, Somerville, Middlesex County, Massachusetts, 02145, United States", "category": "building", "type": "yes", "latlong": "42.387822549999996,-71.08250766026688" }, "geometry": { "type": "Point", "coordinates": [ -71.082507660266884, 42.38782255 ] } },
{ "type": "Feature", "properties": { "Street Address": "113 WASHINGTON ST", "City": "Somerville", "State": "MA", "Zip Code": "02143", "result_num": "0", "osm_id": "29746099", "display_name": "Buddy's Diner, 113, Washington Street, Brickbottom, Somerville, Middlesex County, Massachusetts, 02145, United States", "category": "amenity", "type": "restaurant", "latlong": "42.38136155,-71.08688093951923" }, "geometry": { "type": "Point", "coordinates": [ -71.086880939519233, 42.38136155 ] } },
{ "type": "Feature", "properties": { "Street Address": "111 WASHINGTON ST", "City": "Somerville", "State": "MA", "Zip Code": "02143", "result_num": "0", "osm_id": "29789820", "display_name": "111, Washington Street, Brickbottom, Somerville, Middlesex County, Massachusetts, 02145, United States", "category": "building", "type": "yes", "latlong": "42.381409700000006,-71.0867486583101" }, "geometry": { "type": "Point", "coordinates": [ -71.0867486583101, 42.3814097 ] } },
{ "type": "Feature", "properties": { "Street Address": "26 QUINCY ST", "City": "Somerville", "State": "MA", "Zip Code": "02143", "result_num": "0", "osm_id": "29685934", "display_name": "26, Quincy Street, Union Square, Somerville, Middlesex County, Massachusetts, 02143, United States", "category": "building", "type": "yes", "latlong": "42.382935599999996,-71.10074139334213" }, "geometry": { "type": "Point", "coordinates": [ -71.100741393342133, 42.3829356 ] } },
{ "type": "Feature", "properties": { "Street Address": "10 HANCOCK ST", "City": "Somerville", "State": "MA", "Zip Code": "02143", "result_num": "0", "osm_id": "29683223", "display_name": "10, Hancock Street, Wilson Square, Somerville, Middlesex County, Massachusetts, 02144, United States", "category": "building", "type": "yes", "latlong": "42.39033245,-71.11700070554699" }, "geometry": { "type": "Point", "coordinates": [ -71.117000705546985, 42.39033245 ] } },
{ "type": "Feature", "properties": { "Street Address": "19 ELM ST", "City": "Somerville", "State": "MA", "Zip Code": "02143", "result_num": "0", "osm_id": "29795203", "display_name": "19, Elm Street, Wilson Square, Somerville, Middlesex County, Massachusetts, 02144, United States", "category": "building", "type": "yes", "latlong": "42.3866255,-71.11397721327802" }, "geometry": { "type": "Point", "coordinates": [ -71.113977213278019, 42.3866255 ] } },
{ "type": "Feature", "properties": { "Street Address": "10 HANCOCK ST", "City": "Somerville", "State": "MA", "Zip Code": "02143", "result_num": "0", "osm_id": "29683223", "display_name": "10, Hancock Street, Wilson Square, Somerville, Middlesex County, Massachusetts, 02144, United States", "category": "building", "type": "yes", "latlong": "42.39033245,-71.11700070554699" }, "geometry": { "type": "Point", "coordinates": [ -71.117000705546985, 42.39033245 ] } },
{ "type": "Feature", "properties": { "Street Address": "6 MORGAN ST", "City": "Somerville", "State": "MA", "Zip Code": "02143", "result_num": "0", "osm_id": "29684152", "display_name": "6, Morgan Street, Wilson Square, Somerville, Middlesex County, Massachusetts, 02143, United States", "category": "building", "type": "yes", "latlong": "42.380875950000004,-71.10822798027235" }, "geometry": { "type": "Point", "coordinates": [ -71.108227980272346, 42.38087595 ] } },
{ "type": "Feature", "properties": { "Street Address": "34 GRANT ST", "City": "Somerville", "State": "MA", "Zip Code": "02143", "result_num": "0", "osm_id": "29642229", "display_name": "34, Grant Street, Ten Hills, Somerville, Middlesex County, Massachusetts, 02145, United States", "category": "building", "type": "yes", "latlong": "42.3927551,-71.09053688822202" }, "geometry": { "type": "Point", "coordinates": [ -71.090536888222019, 42.3927551 ] } },
{ "type": "Feature", "properties": { "Street Address": "11 MAINE AVE", "City": "Somerville", "State": "MA", "Zip Code": "02143", "result_num": "0", "osm_id": "29537540", "display_name": "9;11, Maine Avenue, East Somerville, Somerville, Middlesex County, Massachusetts, 02145, United States", "category": "building", "type": "apartments", "latlong": "42.388723,-71.08130334770502" }, "geometry": { "type": "Point", "coordinates": [ -71.081303347705017, 42.388723 ] } },
{ "type": "Feature", "properties": { "Street Address": "79 MORELAND ST", "City": "Somerville", "State": "MA", "Zip Code": "02143", "result_num": "0", "osm_id": "29788959", "display_name": "79, Moreland Street, Winter Hill, Somerville, Middlesex County, Massachusetts, 02145, United States", "category": "building", "type": "yes", "latlong": "42.39848955,-71.09635076657679" }, "geometry": { "type": "Point", "coordinates": [ -71.096350766576791, 42.39848955 ] } },
{ "type": "Feature", "properties": { "Street Address": "54 CURTIS AVE", "City": "Somerville", "State": "MA", "Zip Code": "02143", "result_num": "0", "osm_id": "29730256", "display_name": "54, Curtis Avenue, Somerville, Middlesex County, Massachusetts, 02144, United States", "category": "building", "type": "yes", "latlong": "42.40802885,-71.12680785" }, "geometry": { "type": "Point", "coordinates": [ -71.12680785, 42.40802885 ] } },
{ "type": "Feature", "properties": { "Street Address": "109 ORCHARD ST", "City": "Somerville", "State": "MA", "Zip Code": "02143", "result_num": "0", "osm_id": "29822665", "display_name": "109, Orchard Street, West Somerville, Somerville, Middlesex County, Massachusetts, 02140, United States", "category": "building", "type": "yes", "latlong": "42.39388155,-71.12322130630282" }, "geometry": { "type": "Point", "coordinates": [ -71.123221306302824, 42.39388155 ] } },
{ "type": "Feature", "properties": { "Street Address": "156 ALBION ST", "City": "Somerville", "State": "MA", "Zip Code": "02143", "result_num": "0", "osm_id": "29726498", "display_name": "156, Albion Street, Spring Hill, Somerville, Middlesex County, Massachusetts, 02144, United States", "category": "building", "type": "yes", "latlong": "42.39265455,-71.11047329445937" }, "geometry": { "type": "Point", "coordinates": [ -71.110473294459368, 42.39265455 ] } },
{ "type": "Feature", "properties": { "Street Address": "249 CEDAR ST", "City": "Somerville", "State": "MA", "Zip Code": "02143", "result_num": "0", "osm_id": "29578038", "display_name": "249, Cedar Street, Ball Square, Somerville, Middlesex County, Massachusetts, 02144, United States", "category": "building", "type": "yes", "latlong": "42.39659425,-71.1091019953381" }, "geometry": { "type": "Point", "coordinates": [ -71.109101995338094, 42.39659425 ] } },
{ "type": "Feature", "properties": { "Street Address": "239 CEDAR ST", "City": "Somerville", "State": "MA", "Zip Code": "02143", "result_num": "0", "osm_id": "29531733", "display_name": "239, Cedar Street, Ball Square, Somerville, Middlesex County, Massachusetts, 02144, United States", "category": "building", "type": "yes", "latlong": "42.396382349999996,-71.1092568" }, "geometry": { "type": "Point", "coordinates": [ -71.1092568, 42.39638235 ] } },
{ "type": "Feature", "properties": { "Street Address": "13 CLYDE ST", "City": "Somerville", "State": "MA", "Zip Code": "02143", "result_num": "0", "osm_id": "29531822", "display_name": "13, Clyde Street, Magoun Square, Somerville, Middlesex County, Massachusetts, 02144, United States", "category": "building", "type": "apartments", "latlong": "42.3948735,-71.10968410000001" }, "geometry": { "type": "Point", "coordinates": [ -71.10968410000001, 42.3948735 ] } },
{ "type": "Feature", "properties": { "Street Address": "171 CEDAR ST", "City": "Somerville", "State": "MA", "Zip Code": "02143", "result_num": "0", "osm_id": "29514340", "display_name": "171, Cedar Street, Ball Square, Somerville, Middlesex County, Massachusetts, 02144, United States", "category": "building", "type": "yes", "latlong": "42.39428805,-71.11063258863638" }, "geometry": { "type": "Point", "coordinates": [ -71.110632588636378, 42.39428805 ] } },
{ "type": "Feature", "properties": { "Street Address": "24 GARRISON AVE", "City": "Somerville", "State": "MA", "Zip Code": "02143", "result_num": "0", "osm_id": "29517058", "display_name": "24, Garrison Avenue, Somerville, Middlesex County, Massachusetts, 02140, United States", "category": "building", "type": "yes", "latlong": "42.404471,-71.13099184496994" }, "geometry": { "type": "Point", "coordinates": [ -71.130991844969941, 42.404471 ] } },
{ "type": "Feature", "properties": { "Street Address": "68 NORTH ST", "City": "Somerville", "State": "MA", "Zip Code": "02143", "result_num": "0", "osm_id": "29786298", "display_name": "66;68, North Street, Somerville, Middlesex County, Massachusetts, 02474, United States", "category": "building", "type": "yes", "latlong": "42.40802755,-71.13007565347502" }, "geometry": { "type": "Point", "coordinates": [ -71.130075653475018, 42.40802755 ] } },
{ "type": "Feature", "properties": { "Street Address": "49 DICKINSON ST", "City": "Somerville", "State": "MA", "Zip Code": "02143", "result_num": "0", "osm_id": "29533470", "display_name": "49, Dickinson Street, Union Square, Somerville, Middlesex County, Massachusetts, 02143, United States", "category": "building", "type": "yes", "latlong": "42.37477275,-71.10120715814324" }, "geometry": { "type": "Point", "coordinates": [ -71.101207158143239, 42.37477275 ] } },
{ "type": "Feature", "properties": { "Street Address": "9 PARKDALE ST", "City": "Somerville", "State": "MA", "Zip Code": "02143", "result_num": "0", "osm_id": "29725252", "display_name": "9;11, Parkdale Street, Union Square, Somerville, Middlesex County, Massachusetts, 02143, United States", "category": "building", "type": "semidetached_house", "latlong": "42.378889900000004,-71.10234220000001" }, "geometry": { "type": "Point", "coordinates": [ -71.10234220000001, 42.3788899 ] } },
{ "type": "Feature", "properties": { "Street Address": "32 MUNROE ST", "City": "Somerville", "State": "MA", "Zip Code": "02143", "result_num": "0", "osm_id": "29788202", "display_name": "30;32, Munroe Street, Prospect Hill, Somerville, Middlesex County, Massachusetts, 02143, United States", "category": "building", "type": "yes", "latlong": "42.380604649999995,-71.09219875" }, "geometry": { "type": "Point", "coordinates": [ -71.09219875, 42.38060465 ] } },
{ "type": "Feature", "properties": { "Street Address": "103 CROSS ST", "City": "Somerville", "State": "MA", "Zip Code": "02143", "result_num": "0", "osm_id": "29537683", "display_name": "101;103, Cross Street, East Somerville, Somerville, Middlesex County, Massachusetts, 02145, United States", "category": "building", "type": "yes", "latlong": "42.3846847,-71.08889305" }, "geometry": { "type": "Point", "coordinates": [ -71.08889305, 42.3846847 ] } },
{ "type": "Feature", "properties": { "Street Address": "13 GARRISON AVE", "City": "Somerville", "State": "MA", "Zip Code": "02143", "result_num": "0", "osm_id": "29640367", "display_name": "13, Garrison Avenue, Somerville, Middlesex County, Massachusetts, 02140, United States", "category": "building", "type": "yes", "latlong": "42.404931250000004,-71.13097465000001" }, "geometry": { "type": "Point", "coordinates": [ -71.130974650000013, 42.40493125 ] } },
{ "type": "Feature", "properties": { "Street Address": "29 GARRISON AVE", "City": "Somerville", "State": "MA", "Zip Code": "02143", "result_num": "0", "osm_id": "29790439", "display_name": "29;31, Garrison Avenue, Somerville, Middlesex County, Massachusetts, 02140, United States", "category": "building", "type": "yes", "latlong": "42.404498399999994,-71.13153985653594" }, "geometry": { "type": "Point", "coordinates": [ -71.131539856535937, 42.4044984 ] } },
{ "type": "Feature", "properties": { "Street Address": "217 COLLEGE AVE", "City": "Somerville", "State": "MA", "Zip Code": "02143", "result_num": "0", "osm_id": "29828468", "display_name": "217, College Avenue, Ball Square, Somerville, Middlesex County, Massachusetts, 02144, United States", "category": "building", "type": "yes", "latlong": "42.4048193,-71.11705715509999" }, "geometry": { "type": "Point", "coordinates": [ -71.117057155099985, 42.4048193 ] } },
{ "type": "Feature", "properties": { "Street Address": "17 OXFORD ST", "City": "Somerville", "State": "MA", "Zip Code": "02143", "result_num": "0", "osm_id": "29533331", "display_name": "17, Oxford Street, Spring Hill, Somerville, Middlesex County, Massachusetts, 02143, United States", "category": "building", "type": "yes", "latlong": "42.386690900000005,-71.09979278134327" }, "geometry": { "type": "Point", "coordinates": [ -71.099792781343268, 42.3866909 ] } },
{ "type": "Feature", "properties": { "Street Address": "557 SOMERVILLE AVE", "City": "Somerville", "State": "MA", "Zip Code": "02143", "result_num": "0", "osm_id": "29532410", "display_name": "557, Somerville Avenue, Spring Hill, Somerville, Middlesex County, Massachusetts, 02143, United States", "category": "building", "type": "yes", "latlong": "42.38364695,-71.10741855" }, "geometry": { "type": "Point", "coordinates": [ -71.10741855, 42.38364695 ] } },
{ "type": "Feature", "properties": { "Street Address": "43 SYDNEY ST", "City": "Somerville", "State": "MA", "Zip Code": "02143", "result_num": "0", "osm_id": "29740341", "display_name": "41;43, Sydney Street, Ten Hills, Somerville, Middlesex County, Massachusetts, 02145, United States", "category": "building", "type": "yes", "latlong": "42.39462575,-71.08941438729752" }, "geometry": { "type": "Point", "coordinates": [ -71.089414387297523, 42.39462575 ] } },
{ "type": "Feature", "properties": { "Street Address": "95 FRANKLIN ST", "City": "Somerville", "State": "MA", "Zip Code": "02143", "result_num": "0", "osm_id": "29746063", "display_name": "95, Franklin Street, East Somerville, Somerville, Middlesex County, Massachusetts, 02145, United States", "category": "building", "type": "apartments", "latlong": "42.381894700000004,-71.08620109690813" }, "geometry": { "type": "Point", "coordinates": [ -71.086201096908127, 42.3818947 ] } },
{ "type": "Feature", "properties": { "Street Address": "148 BROADWAY", "City": "Somerville", "State": "MA", "Zip Code": "02143", "result_num": "0", "osm_id": "29745682", "display_name": "148, Broadway, East Somerville, Somerville, Middlesex County, Massachusetts, 02145, United States", "category": "building", "type": "yes", "latlong": "42.388128300000005,-71.08530629516643" }, "geometry": { "type": "Point", "coordinates": [ -71.085306295166433, 42.3881283 ] } },
{ "type": "Feature", "properties": { "Street Address": "6 ELLSWORTH ST", "City": "Somerville", "State": "MA", "Zip Code": "02143", "result_num": "0", "osm_id": "29739222", "display_name": "6, Ellsworth Street, East Somerville, Somerville, Middlesex County, Massachusetts, 02145, United States", "category": "building", "type": "yes", "latlong": "42.3867389,-71.08641564675264" }, "geometry": { "type": "Point", "coordinates": [ -71.086415646752641, 42.3867389 ] } },
{ "type": "Feature", "properties": { "Street Address": "133 CROSS ST", "City": "Somerville", "State": "MA", "Zip Code": "02143", "result_num": "0", "osm_id": "29642572", "display_name": "133, Cross Street, East Somerville, Somerville, Middlesex County, Massachusetts, 02145, United States", "category": "building", "type": "yes", "latlong": "42.3834476,-71.08991049999999" }, "geometry": { "type": "Point", "coordinates": [ -71.089910499999988, 42.3834476 ] } },
{ "type": "Feature", "properties": { "Street Address": "47 MARION ST", "City": "Somerville", "State": "MA", "Zip Code": "02143", "result_num": "0", "osm_id": "44709018", "display_name": "47, Marion Street, Union Square, Somerville, Middlesex County, Massachusetts, 02143, United States", "category": "place", "type": "house", "latlong": "42.37739091314885,-71.10080326915224" }, "geometry": { "type": "Point", "coordinates": [ -71.100803269152237, 42.377390913148851 ] } },
{ "type": "Feature", "properties": { "Street Address": "13A AVON PL", "City": "Somerville", "State": "MA", "Zip Code": "02143", "result_num": "0", "osm_id": "9429976", "display_name": "Avon Place, Prospect Hill, Somerville, Middlesex County, Massachusetts, 02145, United States", "category": "highway", "type": "residential", "latlong": "42.3834156,-71.090229" }, "geometry": { "type": "Point", "coordinates": [ -71.090229, 42.3834156 ] } },
{ "type": "Feature", "properties": { "Street Address": "25 MANSFIELD ST", "City": "Somerville", "State": "MA", "Zip Code": "02143", "result_num": "0", "osm_id": "29819862", "display_name": "25, Mansfield Street, Brickbottom, Somerville, Middlesex County, Massachusetts, 02141, United States", "category": "building", "type": "yes", "latlong": "42.3784615,-71.090115394545" }, "geometry": { "type": "Point", "coordinates": [ -71.090115394544995, 42.3784615 ] } },
{ "type": "Feature", "properties": { "Street Address": "16 CROSS ST", "City": "Somerville", "State": "MA", "Zip Code": "02143", "result_num": "0", "osm_id": "29819884", "display_name": "16;18F;18R, Cross Street, East Somerville, Somerville, Middlesex County, Massachusetts, 02145, United States", "category": "building", "type": "yes", "latlong": "42.387923349999994,-71.08621424735023" }, "geometry": { "type": "Point", "coordinates": [ -71.086214247350227, 42.38792335 ] } },
{ "type": "Feature", "properties": { "Street Address": "57 CROSS ST", "City": "Somerville", "State": "MA", "Zip Code": "02143", "result_num": "0", "osm_id": "29642436", "display_name": "57, Cross Street, East Somerville, Somerville, Middlesex County, Massachusetts, 02145, United States", "category": "building", "type": "detached", "latlong": "42.386254699999995,-71.08766590287188" }, "geometry": { "type": "Point", "coordinates": [ -71.087665902871876, 42.3862547 ] } },
{ "type": "Feature", "properties": { "Street Address": "51 EDGAR AVE", "City": "Somerville", "State": "MA", "Zip Code": "02143", "result_num": "0", "osm_id": "29744596", "display_name": "51;53, Edgar Avenue, Winter Hill, Somerville, Middlesex County, Massachusetts, 02145, United States", "category": "building", "type": "yes", "latlong": "42.396765349999995,-71.09610517264295" }, "geometry": { "type": "Point", "coordinates": [ -71.09610517264295, 42.39676535 ] } },
{ "type": "Feature", "properties": { "Street Address": "24 DEARBORN RD", "City": "Somerville", "State": "MA", "Zip Code": "02143", "result_num": "0", "osm_id": "29516908", "display_name": "24, Dearborn Road, Ball Square, Somerville, Middlesex County, Massachusetts, 02144, United States", "category": "building", "type": "yes", "latlong": "42.4049067,-71.11675065" }, "geometry": { "type": "Point", "coordinates": [ -71.11675065, 42.4049067 ] } },
{ "type": "Feature", "properties": { "Street Address": "39 WHITFIELD RD", "City": "Somerville", "State": "MA", "Zip Code": "02143", "result_num": "0", "osm_id": "29519049", "display_name": "39;41, Whitfield Road, Somerville, Middlesex County, Massachusetts, 02144, United States", "category": "building", "type": "yes", "latlong": "42.406375249999996,-71.12441300531867" }, "geometry": { "type": "Point", "coordinates": [ -71.124413005318672, 42.40637525 ] } },
{ "type": "Feature", "properties": { "Street Address": "152 CURTIS ST", "City": "Somerville", "State": "MA", "Zip Code": "02143", "result_num": "0", "osm_id": "29518859", "display_name": "152, Curtis Street, Somerville, Middlesex County, Massachusetts, 02144, United States", "category": "building", "type": "yes", "latlong": "42.4083952,-71.1241031" }, "geometry": { "type": "Point", "coordinates": [ -71.1241031, 42.4083952 ] } },
{ "type": "Feature", "properties": { "Street Address": "256 POWDER HOUSE BLVD", "City": "Somerville", "State": "MA", "Zip Code": "02143", "result_num": "0", "osm_id": "29826716", "display_name": "254;256, Powder House Boulevard, Ball Square, Somerville, Middlesex County, Massachusetts, 02144, United States", "category": "building", "type": "yes", "latlong": "42.40706875,-71.13028290605749" }, "geometry": { "type": "Point", "coordinates": [ -71.130282906057488, 42.40706875 ] } },
{ "type": "Feature", "properties": { "Street Address": "7 MORRISON AVE", "City": "Somerville", "State": "MA", "Zip Code": "02143", "result_num": "0", "osm_id": "29793695", "display_name": "5;7, Morrison Avenue, Ball Square, Somerville, Middlesex County, Massachusetts, 02144, United States", "category": "building", "type": "apartments", "latlong": "42.39466215,-71.11101163291625" }, "geometry": { "type": "Point", "coordinates": [ -71.111011632916245, 42.39466215 ] } },
{ "type": "Feature", "properties": { "Street Address": "6 WHEATLAND ST", "City": "Somerville", "State": "MA", "Zip Code": "02143", "result_num": "0", "osm_id": "29730800", "display_name": "6, Wheatland Street, Ten Hills, Somerville, Middlesex County, Massachusetts, 02145, United States", "category": "building", "type": "yes", "latlong": "42.391670000000005,-71.0907563527027" }, "geometry": { "type": "Point", "coordinates": [ -71.090756352702698, 42.39167 ] } },
{ "type": "Feature", "properties": { "Street Address": "114 ALBION ST", "City": "Somerville", "State": "MA", "Zip Code": "02143", "result_num": "0", "osm_id": "29683084", "display_name": "114;116, Albion Street, Spring Hill, Somerville, Middlesex County, Massachusetts, 02144, United States", "category": "building", "type": "yes", "latlong": "42.39184265,-71.10858355" }, "geometry": { "type": "Point", "coordinates": [ -71.10858355, 42.39184265 ] } },
{ "type": "Feature", "properties": { "Street Address": "187 LOWELL ST", "City": "Somerville", "State": "MA", "Zip Code": "02143", "result_num": "0", "osm_id": "29683212", "display_name": "185;187, Lowell Street, Spring Hill, Somerville, Middlesex County, Massachusetts, 02143, United States", "category": "building", "type": "yes", "latlong": "42.390362499999995,-71.10762324685315" }, "geometry": { "type": "Point", "coordinates": [ -71.107623246853151, 42.3903625 ] } },
{ "type": "Feature", "properties": { "Street Address": "225 HIGHLAND AVE", "City": "Somerville", "State": "MA", "Zip Code": "02143", "result_num": "0", "osm_id": "29726574", "display_name": "225, Highland Avenue, Spring Hill, Somerville, Middlesex County, Massachusetts, 02143, United States", "category": "building", "type": "detached", "latlong": "42.390595399999995,-71.10834645" }, "geometry": { "type": "Point", "coordinates": [ -71.10834645, 42.3905954 ] } },
{ "type": "Feature", "properties": { "Street Address": "227 HIGHLAND AVE", "City": "Somerville", "State": "MA", "Zip Code": "02143", "result_num": "0", "osm_id": "29683182", "display_name": "227, Highland Avenue, Spring Hill, Somerville, Middlesex County, Massachusetts, 02143, United States", "category": "building", "type": "detached", "latlong": "42.39065175,-71.10846608698131" }, "geometry": { "type": "Point", "coordinates": [ -71.108466086981309, 42.39065175 ] } },
{ "type": "Feature", "properties": { "Street Address": "43 CEDAR ST", "City": "Somerville", "State": "MA", "Zip Code": "02143", "result_num": "0", "osm_id": "29532093", "display_name": "43, Cedar Street, Wilson Square, Somerville, Middlesex County, Massachusetts, 02144, United States", "category": "building", "type": "yes", "latlong": "42.389609899999996,-71.11401305267856" }, "geometry": { "type": "Point", "coordinates": [ -71.114013052678558, 42.3896099 ] } },
{ "type": "Feature", "properties": { "Street Address": "39 CEDAR ST", "City": "Somerville", "State": "MA", "Zip Code": "02143", "result_num": "0", "osm_id": "29514630", "display_name": "39, Cedar Street, Wilson Square, Somerville, Middlesex County, Massachusetts, 02144, United States", "category": "building", "type": "yes", "latlong": "42.3894964,-71.11408159533899" }, "geometry": { "type": "Point", "coordinates": [ -71.114081595338988, 42.3894964 ] } },
{ "type": "Feature", "properties": { "Street Address": "32 WEBSTER AVE", "City": "Somerville", "State": "MA", "Zip Code": "02143", "result_num": "0", "osm_id": "29793940", "display_name": "32, Webster Avenue, Union Square, Somerville, Middlesex County, Massachusetts, 02143, United States", "category": "building", "type": "apartments", "latlong": "42.37817205,-71.09570135200708" }, "geometry": { "type": "Point", "coordinates": [ -71.095701352007083, 42.37817205 ] } },
{ "type": "Feature", "properties": { "Street Address": "68 ALPINE ST", "City": "Somerville", "State": "MA", "Zip Code": "02143", "result_num": "0", "osm_id": "29629238", "display_name": "68, Alpine Street, Spring Hill, Somerville, Middlesex County, Massachusetts, 02143, United States", "category": "building", "type": "yes", "latlong": "42.3928064,-71.10823748477584" }, "geometry": { "type": "Point", "coordinates": [ -71.108237484775842, 42.3928064 ] } },
{ "type": "Feature", "properties": { "Street Address": "36 PRINCETON ST", "City": "Somerville", "State": "MA", "Zip Code": "02143", "result_num": "0", "osm_id": "29631719", "display_name": "36, Princeton Street, Spring Hill, Somerville, Middlesex County, Massachusetts, 02144, United States", "category": "building", "type": "yes", "latlong": "42.392821749999996,-71.1070511" }, "geometry": { "type": "Point", "coordinates": [ -71.1070511, 42.39282175 ] } },
{ "type": "Feature", "properties": { "Street Address": "15 CENTRAL RD", "City": "Somerville", "State": "MA", "Zip Code": "02143", "result_num": "0", "osm_id": "29828355", "display_name": "15, Central Road, Spring Hill, Somerville, Middlesex County, Massachusetts, 02143, United States", "category": "building", "type": "yes", "latlong": "42.38873965,-71.10249268105056" }, "geometry": { "type": "Point", "coordinates": [ -71.102492681050563, 42.38873965 ] } },
{ "type": "Feature", "properties": { "Street Address": "101-103 ALPINE ST", "City": "Somerville", "State": "MA", "Zip Code": "02143", "result_num": "0", "osm_id": "9429328", "display_name": "Alpine Street, Spring Hill, Somerville, Middlesex County, Massachusetts, 02144, United States", "category": "highway", "type": "residential", "latlong": "42.3937322,-71.111095" }, "geometry": { "type": "Point", "coordinates": [ -71.111095, 42.3937322 ] } },
{ "type": "Feature", "properties": { "Street Address": "250 BROADWAY", "City": "Somerville", "State": "MA", "Zip Code": "02143", "result_num": "0", "osm_id": "29796444", "display_name": "250, Broadway, East Somerville, Somerville, Middlesex County, Massachusetts, 02145, United States", "category": "building", "type": "yes", "latlong": "42.39042055,-71.09039454027547" }, "geometry": { "type": "Point", "coordinates": [ -71.090394540275469, 42.39042055 ] } },
{ "type": "Feature", "properties": { "Street Address": "57 BOSTON ST", "City": "Somerville", "State": "MA", "Zip Code": "02143", "result_num": "0", "osm_id": "29520262", "display_name": "57, Boston Street, Prospect Hill, Somerville, Middlesex County, Massachusetts, 02143, United States", "category": "building", "type": "yes", "latlong": "42.38278725,-71.09271929965561" }, "geometry": { "type": "Point", "coordinates": [ -71.092719299655613, 42.38278725 ] } },
{ "type": "Feature", "properties": { "Street Address": "47 GREENVILLE ST", "City": "Somerville", "State": "MA", "Zip Code": "02143", "result_num": "0", "osm_id": "29826715", "display_name": "47, Greenville Street, Prospect Hill, Somerville, Middlesex County, Massachusetts, 02143, United States", "category": "building", "type": "yes", "latlong": "42.382034149999996,-71.09335724575735" }, "geometry": { "type": "Point", "coordinates": [ -71.093357245757346, 42.38203415 ] } },
{ "type": "Feature", "properties": { "Street Address": "60 PEARSON AVE", "City": "Somerville", "State": "MA", "Zip Code": "02143", "result_num": "0", "osm_id": "29531697", "display_name": "58;60, Pearson Avenue, Ball Square, Somerville, Middlesex County, Massachusetts, 02144, United States", "category": "building", "type": "yes", "latlong": "42.3966174,-71.11179210782998" }, "geometry": { "type": "Point", "coordinates": [ -71.111792107829984, 42.3966174 ] } },
{ "type": "Feature", "properties": { "Street Address": "8 OLIVER ST", "City": "Somerville", "State": "MA", "Zip Code": "02143", "result_num": "0", "osm_id": "29932498", "display_name": "8, Oliver Street, East Somerville, Somerville, Middlesex County, Massachusetts, 02145, United States", "category": "building", "type": "yes", "latlong": "42.3832076,-71.0856902572612" }, "geometry": { "type": "Point", "coordinates": [ -71.085690257261206, 42.3832076 ] } },
{ "type": "Feature", "properties": { "Street Address": "59 GILMAN ST", "City": "Somerville", "State": "MA", "Zip Code": "02143", "result_num": "0", "osm_id": "200089610", "display_name": "59, Gilman Street, Prospect Hill, Somerville, Middlesex County, Massachusetts, 02145, United States", "category": "building", "type": "yes", "latlong": "42.38546275,-71.09126130403912" }, "geometry": { "type": "Point", "coordinates": [ -71.091261304039122, 42.38546275 ] } },
{ "type": "Feature", "properties": { "Street Address": "97 GILMAN ST", "City": "Somerville", "State": "MA", "Zip Code": "02143", "result_num": "0", "osm_id": "29519927", "display_name": "97, Gilman Street, Prospect Hill, Somerville, Middlesex County, Massachusetts, 02145, United States", "category": "building", "type": "yes", "latlong": "42.38644635,-71.0927333294602" }, "geometry": { "type": "Point", "coordinates": [ -71.092733329460202, 42.38644635 ] } },
{ "type": "Feature", "properties": { "Street Address": "96 PORTER ST", "City": "Somerville", "State": "MA", "Zip Code": "02143", "result_num": "0", "osm_id": "29723947", "display_name": "96, Porter Street, Spring Hill, Somerville, Middlesex County, Massachusetts, 02144, United States", "category": "building", "type": "yes", "latlong": "42.39029265,-71.11106495335181" }, "geometry": { "type": "Point", "coordinates": [ -71.111064953351814, 42.39029265 ] } },
{ "type": "Feature", "properties": { "Street Address": "18 BUCKINGHAM ST", "City": "Somerville", "State": "MA", "Zip Code": "02143", "result_num": "0", "osm_id": "29639365", "display_name": "18, Buckingham Street, Union Square, Somerville, Middlesex County, Massachusetts, 02143, United States", "category": "building", "type": "yes", "latlong": "42.376709500000004,-71.10308390302643" }, "geometry": { "type": "Point", "coordinates": [ -71.10308390302643, 42.3767095 ] } },
{ "type": "Feature", "properties": { "Street Address": "16 BUCKINGHAM ST", "City": "Somerville", "State": "MA", "Zip Code": "02143", "result_num": "0", "osm_id": "29530376", "display_name": "16, Buckingham Street, Union Square, Somerville, Middlesex County, Massachusetts, 02143, United States", "category": "building", "type": "yes", "latlong": "42.376658250000006,-71.10320806763866" }, "geometry": { "type": "Point", "coordinates": [ -71.103208067638661, 42.37665825 ] } },
{ "type": "Feature", "properties": { "Street Address": "14 BUCKINGHAM ST", "City": "Somerville", "State": "MA", "Zip Code": "02143", "result_num": "0", "osm_id": "29639380", "display_name": "14, Buckingham Street, Union Square, Somerville, Middlesex County, Massachusetts, 02143, United States", "category": "building", "type": "yes", "latlong": "42.3765766,-71.10328707133527" }, "geometry": { "type": "Point", "coordinates": [ -71.103287071335274, 42.3765766 ] } },
{ "type": "Feature", "properties": { "Street Address": "20 GLENWOOD RD", "City": "Somerville", "State": "MA", "Zip Code": "02143", "result_num": "0", "osm_id": "29531927", "display_name": "20, Glenwood Road, Magoun Square, Somerville, Middlesex County, Massachusetts, 02143, United States", "category": "building", "type": "yes", "latlong": "42.3930646,-71.10366630722824" }, "geometry": { "type": "Point", "coordinates": [ -71.103666307228238, 42.3930646 ] } },
{ "type": "Feature", "properties": { "Street Address": "24 GLENWOOD RD", "City": "Somerville", "State": "MA", "Zip Code": "02143", "result_num": "0", "osm_id": "29828808", "display_name": "24, Glenwood Road, Magoun Square, Somerville, Middlesex County, Massachusetts, 02143, United States", "category": "building", "type": "yes", "latlong": "42.39321305,-71.10357674744898" }, "geometry": { "type": "Point", "coordinates": [ -71.103576747448983, 42.39321305 ] } },
{ "type": "Feature", "properties": { "Street Address": "69 BAY STATE AVE", "City": "Somerville", "State": "MA", "Zip Code": "02143", "result_num": "0", "osm_id": "29723301", "display_name": "69, Bay State Avenue, Ball Square, Somerville, Middlesex County, Massachusetts, 02144, United States", "category": "building", "type": "yes", "latlong": "42.3984521,-71.11601605382916" }, "geometry": { "type": "Point", "coordinates": [ -71.116016053829156, 42.3984521 ] } },
{ "type": "Feature", "properties": { "Street Address": "3 MYRTLE ST", "City": "Somerville", "State": "MA", "Zip Code": "02143", "result_num": "0", "osm_id": "29642635", "display_name": "1;3;5, Myrtle Street, East Somerville, Somerville, Middlesex County, Massachusetts, 02145, United States", "category": "building", "type": "apartments", "latlong": "42.3818903,-71.08373512589208" }, "geometry": { "type": "Point", "coordinates": [ -71.083735125892076, 42.3818903 ] } },
{ "type": "Feature", "properties": { "Street Address": "49 MYRTLE ST", "City": "Somerville", "State": "MA", "Zip Code": "02143", "result_num": "0", "osm_id": "29826458", "display_name": "49, Myrtle Street, East Somerville, Somerville, Middlesex County, Massachusetts, 02145, United States", "category": "building", "type": "yes", "latlong": "42.383480250000005,-71.08372792554198" }, "geometry": { "type": "Point", "coordinates": [ -71.083727925541979, 42.38348025 ] } },
{ "type": "Feature", "properties": { "Street Address": "10 CLIFTON ST", "City": "Somerville", "State": "MA", "Zip Code": "02143", "result_num": "0", "osm_id": "29792891", "display_name": "10, Clifton Street, West Somerville, Somerville, Middlesex County, Massachusetts, 02144, United States", "category": "building", "type": "yes", "latlong": "42.396543,-71.11725710336891" }, "geometry": { "type": "Point", "coordinates": [ -71.117257103368914, 42.396543 ] } },
{ "type": "Feature", "properties": { "Street Address": "49 ROGERS AVE", "City": "Somerville", "State": "MA", "Zip Code": "02143", "result_num": "0", "osm_id": "29795783", "display_name": "49, Rogers Avenue, Ball Square, Somerville, Middlesex County, Massachusetts, 02144, United States", "category": "building", "type": "apartments", "latlong": "42.39700235,-71.1128632451709" }, "geometry": { "type": "Point", "coordinates": [ -71.1128632451709, 42.39700235 ] } },
{ "type": "Feature", "properties": { "Street Address": "54 ROGERS AVE", "City": "Somerville", "State": "MA", "Zip Code": "02143", "result_num": "0", "osm_id": "29514111", "display_name": "54, Rogers Avenue, Ball Square, Somerville, Middlesex County, Massachusetts, 02144, United States", "category": "building", "type": "yes", "latlong": "42.3973716,-71.11310825160318" }, "geometry": { "type": "Point", "coordinates": [ -71.11310825160318, 42.3973716 ] } },
{ "type": "Feature", "properties": { "Street Address": "", "City": "Somerville", "State": "MA", "Zip Code": "02143", "result_num": "0", "osm_id": "1933746", "display_name": "Somerville, Middlesex County, Massachusetts, United States", "category": "boundary", "type": "administrative", "latlong": "42.3875968,-71.0994968" }, "geometry": { "type": "Point", "coordinates": [ -71.0994968, 42.3875968 ] } },
{ "type": "Feature", "properties": { "Street Address": "70 LINE ST", "City": "Somerville", "State": "MA", "Zip Code": "02143", "result_num": "0", "osm_id": "29532860", "display_name": "70, Line Street, Inman Square, Somerville, Middlesex County, Massachusetts, 02143, United States", "category": "building", "type": "yes", "latlong": "42.3761653,-71.10496925671808" }, "geometry": { "type": "Point", "coordinates": [ -71.104969256718078, 42.3761653 ] } },
{ "type": "Feature", "properties": { "Street Address": "37 BERKELEY ST", "City": "Somerville", "State": "MA", "Zip Code": "02143", "result_num": "0", "osm_id": "29585663", "display_name": "37, Berkeley Street, Spring Hill, Somerville, Middlesex County, Massachusetts, 02143, United States", "category": "building", "type": "yes", "latlong": "42.386393749999996,-71.10167013372998" }, "geometry": { "type": "Point", "coordinates": [ -71.101670133729982, 42.38639375 ] } },
{ "type": "Feature", "properties": { "Street Address": "33 BERKELEY ST", "City": "Somerville", "State": "MA", "Zip Code": "02143", "result_num": "0", "osm_id": "29820234", "display_name": "33, Berkeley Street, Spring Hill, Somerville, Middlesex County, Massachusetts, 02143, United States", "category": "building", "type": "yes", "latlong": "42.3863631,-71.10155368839042" }, "geometry": { "type": "Point", "coordinates": [ -71.101553688390425, 42.3863631 ] } },
{ "type": "Feature", "properties": { "Street Address": "242 SUMMER ST", "City": "Somerville", "State": "MA", "Zip Code": "02143", "result_num": "0", "osm_id": "29683310", "display_name": "242, Summer Street, Spring Hill, Somerville, Middlesex County, Massachusetts, 02143, United States", "category": "building", "type": "yes", "latlong": "42.38951195,-71.11253393729868" }, "geometry": { "type": "Point", "coordinates": [ -71.112533937298679, 42.38951195 ] } },
{ "type": "Feature", "properties": { "Street Address": "184 NORTH ST", "City": "Somerville", "State": "MA", "Zip Code": "02143", "result_num": "0", "osm_id": "29729914", "display_name": "184, North Street, Somerville, Middlesex County, Massachusetts, 02474, United States", "category": "building", "type": "yes", "latlong": "42.4117342,-71.12768330631856" }, "geometry": { "type": "Point", "coordinates": [ -71.127683306318559, 42.4117342 ] } },
{ "type": "Feature", "properties": { "Street Address": "102 WILLOW AVE", "City": "Somerville", "State": "MA", "Zip Code": "02143", "result_num": "0", "osm_id": "29637257", "display_name": "102, Willow Avenue, Ball Square, Somerville, Middlesex County, Massachusetts, 02144, United States", "category": "building", "type": "yes", "latlong": "42.3945923,-71.11670469378846" }, "geometry": { "type": "Point", "coordinates": [ -71.116704693788463, 42.3945923 ] } },
{ "type": "Feature", "properties": { "Street Address": "89 GILMAN ST", "City": "Somerville", "State": "MA", "Zip Code": "02143", "result_num": "0", "osm_id": "29745829", "display_name": "89, Gilman Street, Prospect Hill, Somerville, Middlesex County, Massachusetts, 02145, United States", "category": "building", "type": "yes", "latlong": "42.386216950000005,-71.09240295331145" }, "geometry": { "type": "Point", "coordinates": [ -71.092402953311449, 42.38621695 ] } },
{ "type": "Feature", "properties": { "Street Address": "52 PUTNAM ST", "City": "Somerville", "State": "MA", "Zip Code": "02143", "result_num": "0", "osm_id": "29537658", "display_name": "52, Putnam Street, Union Square, Somerville, Middlesex County, Massachusetts, 02143, United States", "category": "building", "type": "yes", "latlong": "42.3852254,-71.09781755055249" }, "geometry": { "type": "Point", "coordinates": [ -71.097817550552492, 42.3852254 ] } },
{ "type": "Feature", "properties": { "Street Address": "36 PUTNAM ST", "City": "Somerville", "State": "MA", "Zip Code": "02143", "result_num": "0", "osm_id": "29537687", "display_name": "36, Putnam Street, Union Square, Somerville, Middlesex County, Massachusetts, 02143, United States", "category": "building", "type": "yes", "latlong": "42.3845932,-71.09819352988771" }, "geometry": { "type": "Point", "coordinates": [ -71.098193529887709, 42.3845932 ] } },
{ "type": "Feature", "properties": { "Street Address": "20 BROOK ST", "City": "Somerville", "State": "MA", "Zip Code": "02143", "result_num": "0", "osm_id": "29642402", "display_name": "20;22, Brook Street, East Somerville, Somerville, Middlesex County, Massachusetts, 02145, United States", "category": "building", "type": "yes", "latlong": "42.38714815,-71.08620323169399" }, "geometry": { "type": "Point", "coordinates": [ -71.086203231693986, 42.38714815 ] } },
{ "type": "Feature", "properties": { "Street Address": "67 GRANT ST", "City": "Somerville", "State": "MA", "Zip Code": "02143", "result_num": "0", "osm_id": "29730728", "display_name": "67;69, Grant Street, Ten Hills, Somerville, Middlesex County, Massachusetts, 02145, United States", "category": "building", "type": "yes", "latlong": "42.39342045,-71.08903699271562" }, "geometry": { "type": "Point", "coordinates": [ -71.08903699271562, 42.39342045 ] } },
{ "type": "Feature", "properties": { "Street Address": "4 WIGGLESWORTH ST", "City": "Somerville", "State": "MA", "Zip Code": "02143", "result_num": "0", "osm_id": "29745715", "display_name": "4;6, Wigglesworth Street, Prospect Hill, Somerville, Middlesex County, Massachusetts, 02145, United States", "category": "building", "type": "yes", "latlong": "42.3873504,-71.09196449769857" }, "geometry": { "type": "Point", "coordinates": [ -71.091964497698569, 42.3873504 ] } },
{ "type": "Feature", "properties": { "Street Address": "153 GLEN ST", "City": "Somerville", "State": "MA", "Zip Code": "02143", "result_num": "0", "osm_id": "29932962", "display_name": "153;155, Glen Street, East Somerville, Somerville, Middlesex County, Massachusetts, 02145, United States", "category": "building", "type": "apartments", "latlong": "42.3826808,-71.0879325333955" }, "geometry": { "type": "Point", "coordinates": [ -71.087932533395502, 42.3826808 ] } },
{ "type": "Feature", "properties": { "Street Address": "55 SYCAMORE ST", "City": "Somerville", "State": "MA", "Zip Code": "02143", "result_num": "0", "osm_id": "29727414", "display_name": "53;55, Sycamore Street, Winter Hill, Somerville, Middlesex County, Massachusetts, 02143, United States", "category": "building", "type": "yes", "latlong": "42.38991885,-71.10026379446808" }, "geometry": { "type": "Point", "coordinates": [ -71.100263794468077, 42.38991885 ] } },
{ "type": "Feature", "properties": { "Street Address": "58 SYCAMORE ST", "City": "Somerville", "State": "MA", "Zip Code": "02143", "result_num": "0", "osm_id": "29516736", "display_name": "58, Sycamore Street, Winter Hill, Somerville, Middlesex County, Massachusetts, 02143, United States", "category": "building", "type": "yes", "latlong": "42.39006115,-71.10056520221524" }, "geometry": { "type": "Point", "coordinates": [ -71.100565202215236, 42.39006115 ] } },
{ "type": "Feature", "properties": { "Street Address": "234 PEARL ST", "City": "Somerville", "State": "MA", "Zip Code": "02143", "result_num": "0", "osm_id": "29789226", "display_name": "234, Pearl Street, Prospect Hill, Somerville, Middlesex County, Massachusetts, 02143, United States", "category": "building", "type": "detached", "latlong": "42.387583199999995,-71.09446170000001" }, "geometry": { "type": "Point", "coordinates": [ -71.094461700000011, 42.3875832 ] } },
{ "type": "Feature", "properties": { "Street Address": "27 PINCKNEY ST", "City": "Somerville", "State": "MA", "Zip Code": "02143", "result_num": "0", "osm_id": "29745994", "display_name": "27, Pinckney Street, East Somerville, Somerville, Middlesex County, Massachusetts, 02145, United States", "category": "building", "type": "yes", "latlong": "42.383132599999996,-71.0821568" }, "geometry": { "type": "Point", "coordinates": [ -71.0821568, 42.3831326 ] } },
{ "type": "Feature", "properties": { "Street Address": "33 ALSTON ST", "City": "Somerville", "State": "MA", "Zip Code": "02143", "result_num": "0", "osm_id": "29933550", "display_name": "33, Alston Street, Prospect Hill, Somerville, Middlesex County, Massachusetts, 02143, United States", "category": "building", "type": "yes", "latlong": "42.3814118,-71.08939277233836" }, "geometry": { "type": "Point", "coordinates": [ -71.089392772338357, 42.3814118 ] } },
{ "type": "Feature", "properties": { "Street Address": "172 PEARL ST", "City": "Somerville", "State": "MA", "Zip Code": "02143", "result_num": "0", "osm_id": "29825839", "display_name": "172, Pearl Street, East Somerville, Somerville, Middlesex County, Massachusetts, 02145, United States", "category": "building", "type": "yes", "latlong": "42.386307,-71.09025525" }, "geometry": { "type": "Point", "coordinates": [ -71.09025525, 42.386307 ] } },
{ "type": "Feature", "properties": { "Street Address": "11 HEATH ST", "City": "Somerville", "State": "MA", "Zip Code": "02143", "result_num": "0", "osm_id": "29642197", "display_name": "11, Heath Street, Winter Hill, Somerville, Middlesex County, Massachusetts, 02145, United States", "category": "building", "type": "yes", "latlong": "42.39400895,-71.09295145" }, "geometry": { "type": "Point", "coordinates": [ -71.09295145, 42.39400895 ] } },
{ "type": "Feature", "properties": { "Street Address": "97 PENNSYLVANIA AVE", "City": "Somerville", "State": "MA", "Zip Code": "02143", "result_num": "0", "osm_id": "29537497", "display_name": "97, Pennsylvania Avenue, East Somerville, Somerville, Middlesex County, Massachusetts, 02145, United States", "category": "building", "type": "yes", "latlong": "42.389455600000005,-71.08327636806712" }, "geometry": { "type": "Point", "coordinates": [ -71.083276368067118, 42.3894556 ] } },
{ "type": "Feature", "properties": { "Street Address": "36 MUNROE ST", "City": "Somerville", "State": "MA", "Zip Code": "02143", "result_num": "0", "osm_id": "29746148", "display_name": "36, Munroe Street, Prospect Hill, Somerville, Middlesex County, Massachusetts, 02143, United States", "category": "building", "type": "yes", "latlong": "42.380656,-71.09237005438072" }, "geometry": { "type": "Point", "coordinates": [ -71.092370054380723, 42.380656 ] } },
{ "type": "Feature", "properties": { "Street Address": "292 HIGHLAND AVE", "City": "Somerville", "State": "MA", "Zip Code": "02143", "result_num": "0", "osm_id": "29631593", "display_name": "292, Highland Avenue, Spring Hill, Somerville, Middlesex County, Massachusetts, 02144, United States", "category": "building", "type": "yes", "latlong": "42.392210950000006,-71.1129279790724" }, "geometry": { "type": "Point", "coordinates": [ -71.112927979072396, 42.39221095 ] } },
{ "type": "Feature", "properties": { "Street Address": "46 MOORE ST", "City": "Somerville", "State": "MA", "Zip Code": "02143", "result_num": "0", "osm_id": "29681988", "display_name": "46, Moore Street, Teele Square, Somerville, Middlesex County, Massachusetts, 02140, United States", "category": "building", "type": "yes", "latlong": "42.401061799999994,-71.12801703025485" }, "geometry": { "type": "Point", "coordinates": [ -71.128017030254853, 42.4010618 ] } },
{ "type": "Feature", "properties": { "Street Address": "27 MOORE ST", "City": "Somerville", "State": "MA", "Zip Code": "02143", "result_num": "0", "osm_id": "29681899", "display_name": "27, Moore Street, Teele Square, Somerville, Middlesex County, Massachusetts, 02140, United States", "category": "building", "type": "yes", "latlong": "42.4016572,-71.12786348585308" }, "geometry": { "type": "Point", "coordinates": [ -71.127863485853084, 42.4016572 ] } },
{ "type": "Feature", "properties": { "Street Address": "45 WALKER ST", "City": "Somerville", "State": "MA", "Zip Code": "02143", "result_num": "0", "osm_id": "29823883", "display_name": "45, Walker Street, West Somerville, Somerville, Middlesex County, Massachusetts, 02144, United States", "category": "building", "type": "yes", "latlong": "42.40167435,-71.11950558066437" }, "geometry": { "type": "Point", "coordinates": [ -71.119505580664367, 42.40167435 ] } },
{ "type": "Feature", "properties": { "Street Address": "9 AUSTIN ST", "City": "Somerville", "State": "MA", "Zip Code": "02143", "result_num": "0", "osm_id": "29933833", "display_name": "9, Austin Street, East Somerville, Somerville, Middlesex County, Massachusetts, 02145, United States", "category": "building", "type": "apartments", "latlong": "42.38753095,-71.08023488415273" }, "geometry": { "type": "Point", "coordinates": [ -71.080234884152731, 42.38753095 ] } },
{ "type": "Feature", "properties": { "Street Address": "13 HANSON AVE", "City": "Somerville", "State": "MA", "Zip Code": "02143", "result_num": "0", "osm_id": "29532620", "display_name": "13,15, Hanson Avenue, Wilson Square, Somerville, Middlesex County, Massachusetts, 02143, United States", "category": "building", "type": "yes", "latlong": "42.379359300000004,-71.10481969341933" }, "geometry": { "type": "Point", "coordinates": [ -71.10481969341933, 42.3793593 ] } },
{ "type": "Feature", "properties": { "Street Address": "42 HIGH ST", "City": "Somerville", "State": "MA", "Zip Code": "02143", "result_num": "0", "osm_id": "29730089", "display_name": "42,44, High Street, Somerville, Middlesex County, Massachusetts, 02474, United States", "category": "building", "type": "yes", "latlong": "42.41016825,-71.13013360619574" }, "geometry": { "type": "Point", "coordinates": [ -71.130133606195741, 42.41016825 ] } },
{ "type": "Feature", "properties": { "Street Address": "16 TRULL ST", "City": "Somerville", "State": "MA", "Zip Code": "02143", "result_num": "0", "osm_id": "29682890", "display_name": "16, Trull Street, Magoun Square, Somerville, Middlesex County, Massachusetts, 02143, United States", "category": "building", "type": "yes", "latlong": "42.393674000000004,-71.10481139776338" }, "geometry": { "type": "Point", "coordinates": [ -71.104811397763385, 42.393674 ] } },
{ "type": "Feature", "properties": { "Street Address": "43 TRULL ST", "City": "Somerville", "State": "MA", "Zip Code": "02143", "result_num": "0", "osm_id": "29932830", "display_name": "41;43, Trull Street, Magoun Square, Somerville, Middlesex County, Massachusetts, 02143, United States", "category": "building", "type": "apartments", "latlong": "42.394368549999996,-71.10388819583304" }, "geometry": { "type": "Point", "coordinates": [ -71.103888195833036, 42.39436855 ] } },
{ "type": "Feature", "properties": { "Street Address": "47 SPRING ST", "City": "Somerville", "State": "MA", "Zip Code": "02143", "result_num": "0", "osm_id": "29685413", "display_name": "47, Spring Street, Spring Hill, Somerville, Middlesex County, Massachusetts, 02143, United States", "category": "building", "type": "yes", "latlong": "42.386289250000004,-71.10811592516214" }, "geometry": { "type": "Point", "coordinates": [ -71.108115925162139, 42.38628925 ] } },
{ "type": "Feature", "properties": { "Street Address": "429 MEDFORD ST", "City": "Somerville", "State": "MA", "Zip Code": "02143", "result_num": "0", "osm_id": "29685885", "display_name": "429, Medford Street, Winter Hill, Somerville, Middlesex County, Massachusetts, 02143, United States", "category": "building", "type": "apartments", "latlong": "42.39238575,-71.10024143947244" }, "geometry": { "type": "Point", "coordinates": [ -71.100241439472441, 42.39238575 ] } },
{ "type": "Feature", "properties": { "Street Address": "96 SYCAMORE ST", "City": "Somerville", "State": "MA", "Zip Code": "02143", "result_num": "0", "osm_id": "29516739", "display_name": "96, Sycamore Street, Winter Hill, Somerville, Middlesex County, Massachusetts, 02143, United States", "category": "building", "type": "yes", "latlong": "42.39168295,-71.09936585" }, "geometry": { "type": "Point", "coordinates": [ -71.09936585, 42.39168295 ] } },
{ "type": "Feature", "properties": { "Street Address": "357 MEDFORD ST", "City": "Somerville", "State": "MA", "Zip Code": "02143", "result_num": "0", "osm_id": "29537529", "display_name": "357, Medford Street, Somerville, Middlesex County, Massachusetts, 02143, United States", "category": "building", "type": "yes", "latlong": "42.388939750000006,-71.09668214999999" }, "geometry": { "type": "Point", "coordinates": [ -71.09668215, 42.38893975 ] } },
{ "type": "Feature", "properties": { "Street Address": "508 BROADWAY", "City": "Somerville", "State": "MA", "Zip Code": "02143", "result_num": "0", "osm_id": "29682412", "display_name": "508;510, Broadway, Magoun Square, Somerville, Middlesex County, Massachusetts, 02144, United States", "category": "building", "type": "apartments", "latlong": "42.3974634,-71.10539373154953" }, "geometry": { "type": "Point", "coordinates": [ -71.105393731549526, 42.3974634 ] } },
{ "type": "Feature", "properties": { "Street Address": "6 HINCKLEY ST", "City": "Somerville", "State": "MA", "Zip Code": "02143", "result_num": "0", "osm_id": "29827773", "display_name": "6, Hinckley Street, Magoun Square, Somerville, Middlesex County, Massachusetts, 02144, United States", "category": "building", "type": "apartments", "latlong": "42.397250650000004,-71.1050818" }, "geometry": { "type": "Point", "coordinates": [ -71.1050818, 42.39725065 ] } },
{ "type": "Feature", "properties": { "Street Address": "36 RICHARDSON ST", "City": "Somerville", "State": "MA", "Zip Code": "02143", "result_num": "0", "osm_id": "29514227", "display_name": "36, Richardson Street, Magoun Square, Somerville, Middlesex County, Massachusetts, 02144, United States", "category": "building", "type": "yes", "latlong": "42.39592585,-71.10595018133401" }, "geometry": { "type": "Point", "coordinates": [ -71.105950181334009, 42.39592585 ] } },
{ "type": "Feature", "properties": { "Street Address": "18 RICHARDSON ST", "City": "Somerville", "State": "MA", "Zip Code": "02143", "result_num": "0", "osm_id": "29635857", "display_name": "18, Richardson Street, Magoun Square, Somerville, Middlesex County, Massachusetts, 02144, United States", "category": "building", "type": "yes", "latlong": "42.3955769,-71.10519026936937" }, "geometry": { "type": "Point", "coordinates": [ -71.105190269369373, 42.3955769 ] } },
{ "type": "Feature", "properties": { "Street Address": "17 RICHARDSON ST", "City": "Somerville", "State": "MA", "Zip Code": "02143", "result_num": "0", "osm_id": "29531764", "display_name": "15;17, Richardson Street, Magoun Square, Somerville, Middlesex County, Massachusetts, 02144, United States", "category": "building", "type": "yes", "latlong": "42.39578295,-71.10499113309768" }, "geometry": { "type": "Point", "coordinates": [ -71.104991133097684, 42.39578295 ] } },
{ "type": "Feature", "properties": { "Street Address": "97 MORRISON AVE", "City": "Somerville", "State": "MA", "Zip Code": "02143", "result_num": "0", "osm_id": "29723487", "display_name": "97, Morrison Avenue, Ball Square, Somerville, Middlesex County, Massachusetts, 02144, United States", "category": "building", "type": "detached", "latlong": "42.3956754,-71.11503795498993" }, "geometry": { "type": "Point", "coordinates": [ -71.11503795498993, 42.3956754 ] } },
{ "type": "Feature", "properties": { "Street Address": "142 MORRISON AVE", "City": "Somerville", "State": "MA", "Zip Code": "02143", "result_num": "0", "osm_id": "992557735", "display_name": "142, Morrison Avenue, West Somerville, Somerville, Middlesex County, Massachusetts, 02144, United States", "category": "building", "type": "house", "latlong": "42.396144899999996,-71.1173035" }, "geometry": { "type": "Point", "coordinates": [ -71.1173035, 42.3961449 ] } },
{ "type": "Feature", "properties": { "Street Address": "48 CHETWYND RD", "City": "Somerville", "State": "MA", "Zip Code": "02143", "result_num": "0", "osm_id": "29730221", "display_name": "48;50, Chetwynd Road, Somerville, Middlesex County, Massachusetts, 02144, United States", "category": "building", "type": "yes", "latlong": "42.4084699,-71.12626681238862" }, "geometry": { "type": "Point", "coordinates": [ -71.126266812388621, 42.4084699 ] } },
{ "type": "Feature", "properties": { "Street Address": "127 HILLSDALE RD", "City": "Somerville", "State": "MA", "Zip Code": "02143", "result_num": "0", "osm_id": "29730207", "display_name": "125;127, Hillsdale Road, Somerville, Middlesex County, Massachusetts, 02144, United States", "category": "building", "type": "yes", "latlong": "42.408630599999995,-71.12682920145028" }, "geometry": { "type": "Point", "coordinates": [ -71.126829201450278, 42.4086306 ] } },
{ "type": "Feature", "properties": { "Street Address": "126 HILLSDALE RD", "City": "Somerville", "State": "MA", "Zip Code": "02143", "result_num": "0", "osm_id": "29730213", "display_name": "124;126, Hillsdale Road, Somerville, Middlesex County, Massachusetts, 02144, United States", "category": "building", "type": "yes", "latlong": "42.40857365,-71.12640360458806" }, "geometry": { "type": "Point", "coordinates": [ -71.126403604588063, 42.40857365 ] } },
{ "type": "Feature", "properties": { "Street Address": "46 CONWELL AVE", "City": "Somerville", "State": "MA", "Zip Code": "02143", "result_num": "0", "osm_id": "29537048", "display_name": "46;48, Conwell Avenue, Somerville, Middlesex County, Massachusetts, 02144, United States", "category": "building", "type": "yes", "latlong": "42.407434699999996,-71.1269844735055" }, "geometry": { "type": "Point", "coordinates": [ -71.126984473505502, 42.4074347 ] } },
{ "type": "Feature", "properties": { "Street Address": "54 WILLOW AVE", "City": "Somerville", "State": "MA", "Zip Code": "02143", "result_num": "0", "osm_id": "29828547", "display_name": "54;56, Willow Avenue, West Somerville, Somerville, Middlesex County, Massachusetts, 02144, United States", "category": "building", "type": "yes", "latlong": "42.39308985,-71.11779071290071" }, "geometry": { "type": "Point", "coordinates": [ -71.117790712900714, 42.39308985 ] } },
{ "type": "Feature", "properties": { "Street Address": "51 WILLOW AVE", "City": "Somerville", "State": "MA", "Zip Code": "02143", "result_num": "0", "osm_id": "29932493", "display_name": "51;53, Willow Avenue, West Somerville, Somerville, Middlesex County, Massachusetts, 02144, United States", "category": "building", "type": "yes", "latlong": "42.3929294,-71.11738315839517" }, "geometry": { "type": "Point", "coordinates": [ -71.117383158395171, 42.3929294 ] } },
{ "type": "Feature", "properties": { "Street Address": "64 WILLOW AVE", "City": "Somerville", "State": "MA", "Zip Code": "02143", "result_num": "0", "osm_id": "29514394", "display_name": "64, Willow Avenue, West Somerville, Somerville, Middlesex County, Massachusetts, 02144, United States", "category": "building", "type": "yes", "latlong": "42.39346615,-71.11752795000001" }, "geometry": { "type": "Point", "coordinates": [ -71.11752795000001, 42.39346615 ] } },
{ "type": "Feature", "properties": { "Street Address": "172 WALNUT ST", "City": "Somerville", "State": "MA", "Zip Code": "02143", "result_num": "0", "osm_id": "29825899", "display_name": "172, Walnut Street, Prospect Hill, Somerville, Middlesex County, Massachusetts, 02145, United States", "category": "building", "type": "yes", "latlong": "42.390326,-71.09139223536663" }, "geometry": { "type": "Point", "coordinates": [ -71.091392235366627, 42.390326 ] } },
{ "type": "Feature", "properties": { "Street Address": "174 WALNUT ST", "City": "Somerville", "State": "MA", "Zip Code": "02143", "result_num": "0", "osm_id": "29821448", "display_name": "174, Walnut Street, Prospect Hill, Somerville, Middlesex County, Massachusetts, 02145, United States", "category": "building", "type": "yes", "latlong": "42.3904896,-71.091340286726" }, "geometry": { "type": "Point", "coordinates": [ -71.091340286725995, 42.3904896 ] } },
{ "type": "Feature", "properties": { "Street Address": "190 WASHINGTON ST", "City": "Somerville", "State": "MA", "Zip Code": "02143", "result_num": "0", "osm_id": "29823769", "display_name": "190, Washington Street, Prospect Hill, Somerville, Middlesex County, Massachusetts, 02143, United States", "category": "building", "type": "yes", "latlong": "42.3796613,-71.09078705820943" }, "geometry": { "type": "Point", "coordinates": [ -71.090787058209429, 42.3796613 ] } },
{ "type": "Feature", "properties": { "Street Address": "8 CHERRY ST", "City": "Somerville", "State": "MA", "Zip Code": "02143", "result_num": "0", "osm_id": "29514618", "display_name": "8, Cherry Street, Wilson Square, Somerville, Middlesex County, Massachusetts, 02144, United States", "category": "building", "type": "yes", "latlong": "42.38967645,-71.11641575991605" }, "geometry": { "type": "Point", "coordinates": [ -71.116415759916052, 42.38967645 ] } },
{ "type": "Feature", "properties": { "Street Address": "80 CURTIS ST", "City": "Somerville", "State": "MA", "Zip Code": "02143", "result_num": "0", "osm_id": "29537111", "display_name": "80, Curtis Street, Somerville, Middlesex County, Massachusetts, 02144, United States", "category": "building", "type": "yes", "latlong": "42.4062364,-71.12573947173902" }, "geometry": { "type": "Point", "coordinates": [ -71.125739471739024, 42.4062364 ] } },
{ "type": "Feature", "properties": { "Street Address": "388 MEDFORD ST", "City": "Somerville", "State": "MA", "Zip Code": "02143", "result_num": "0", "osm_id": "29933753", "display_name": "388, Medford Street, Winter Hill, Somerville, Middlesex County, Massachusetts, 02143, United States", "category": "building", "type": "yes", "latlong": "42.39012525,-71.09849089705799" }, "geometry": { "type": "Point", "coordinates": [ -71.098490897057985, 42.39012525 ] } },
{ "type": "Feature", "properties": { "Street Address": "15 ALDRICH ST", "City": "Somerville", "State": "MA", "Zip Code": "02143", "result_num": "0", "osm_id": "29820155", "display_name": "15, Aldrich Street, Prospect Hill, Somerville, Middlesex County, Massachusetts, 02145, United States", "category": "building", "type": "yes", "latlong": "42.386062949999996,-71.09116296942801" }, "geometry": { "type": "Point", "coordinates": [ -71.091162969428012, 42.38606295 ] } },
{ "type": "Feature", "properties": { "Street Address": "24 PINCKNEY ST", "City": "Somerville", "State": "MA", "Zip Code": "02143", "result_num": "0", "osm_id": "29826640", "display_name": "24, Pinckney Street, East Somerville, Somerville, Middlesex County, Massachusetts, 02145, United States", "category": "building", "type": "yes", "latlong": "42.38303625,-71.08259709844853" }, "geometry": { "type": "Point", "coordinates": [ -71.082597098448531, 42.38303625 ] } },
{ "type": "Feature", "properties": { "Street Address": "15 ELM ST", "City": "Somerville", "State": "MA", "Zip Code": "02143", "result_num": "0", "osm_id": "29826074", "display_name": "15, Elm Street, Wilson Square, Somerville, Middlesex County, Massachusetts, 02144, United States", "category": "building", "type": "yes", "latlong": "42.3865008,-71.1138863825181" }, "geometry": { "type": "Point", "coordinates": [ -71.113886382518103, 42.3865008 ] } },
{ "type": "Feature", "properties": { "Street Address": "5 NEWBURY ST", "City": "Somerville", "State": "MA", "Zip Code": "02143", "result_num": "0", "osm_id": "29515628", "display_name": "3;5, Newbury Street, Teele Square, Somerville, Middlesex County, Massachusetts, 02140, United States", "category": "building", "type": "apartments", "latlong": "42.40295865,-71.12741270079206" }, "geometry": { "type": "Point", "coordinates": [ -71.127412700792064, 42.40295865 ] } },
{ "type": "Feature", "properties": { "Street Address": "65 BROMFIELD RD", "City": "Somerville", "State": "MA", "Zip Code": "02143", "result_num": "0", "osm_id": "29826348", "display_name": "65, Bromfield Road, Ball Square, Somerville, Middlesex County, Massachusetts, 02144, United States", "category": "building", "type": "yes", "latlong": "42.4035527,-71.11611518292496" }, "geometry": { "type": "Point", "coordinates": [ -71.116115182924958, 42.4035527 ] } },
{ "type": "Feature", "properties": { "Street Address": "2 QUINCY ST", "City": "Somerville", "State": "MA", "Zip Code": "02143", "result_num": "0", "osm_id": "29794124", "display_name": "2, Quincy Street, Union Square, Somerville, Middlesex County, Massachusetts, 02143, United States", "category": "building", "type": "yes", "latlong": "42.38218895,-71.10148960000001" }, "geometry": { "type": "Point", "coordinates": [ -71.1014896, 42.38218895 ] } },
{ "type": "Feature", "properties": { "Street Address": "43 MARION ST", "City": "Somerville", "State": "MA", "Zip Code": "02143", "result_num": "0", "osm_id": "44709018", "display_name": "43, Marion Street, Union Square, Somerville, Middlesex County, Massachusetts, 02143, United States", "category": "place", "type": "house", "latlong": "42.3773948262977,-71.10064953830447" }, "geometry": { "type": "Point", "coordinates": [ -71.100649538304467, 42.377394826297703 ] } },
{ "type": "Feature", "properties": { "Street Address": "38 ROSE ST", "City": "Somerville", "State": "MA", "Zip Code": "02143", "result_num": "0", "osm_id": "29826680", "display_name": "38;40, Rose Street, Union Square, Somerville, Middlesex County, Massachusetts, 02143, United States", "category": "building", "type": "yes", "latlong": "42.37790905,-71.10263662521834" }, "geometry": { "type": "Point", "coordinates": [ -71.102636625218338, 42.37790905 ] } },
{ "type": "Feature", "properties": { "Street Address": "35 ROSE ST", "City": "Somerville", "State": "MA", "Zip Code": "02143", "result_num": "0", "osm_id": "29637853", "display_name": "35;37, Rose Street, Union Square, Somerville, Middlesex County, Massachusetts, 02143, United States", "category": "building", "type": "yes", "latlong": "42.378020250000006,-71.10302060000001" }, "geometry": { "type": "Point", "coordinates": [ -71.1030206, 42.37802025 ] } },
{ "type": "Feature", "properties": { "Street Address": "3 PARTRIDGE AVE", "City": "Somerville", "State": "MA", "Zip Code": "02143", "result_num": "0", "osm_id": "29934937", "display_name": "3, Partridge Avenue, Magoun Square, Somerville, Middlesex County, Massachusetts, 02143, United States", "category": "building", "type": "yes", "latlong": "42.392768649999994,-71.10419884999999" }, "geometry": { "type": "Point", "coordinates": [ -71.104198849999989, 42.39276865 ] } },
{ "type": "Feature", "properties": { "Street Address": "275 SUMMER ST", "City": "Somerville", "State": "MA", "Zip Code": "02143", "result_num": "0", "osm_id": "29793746", "display_name": "275, Summer Street, Spring Hill, Somerville, Middlesex County, Massachusetts, 02144, United States", "category": "building", "type": "yes", "latlong": "42.39115805,-71.11424665296411" }, "geometry": { "type": "Point", "coordinates": [ -71.114246652964113, 42.39115805 ] } },
{ "type": "Feature", "properties": { "Street Address": "74 NEWTON ST", "City": "Somerville", "State": "MA", "Zip Code": "02143", "result_num": "0", "osm_id": "1113497265", "display_name": "74, Newton Street, Union Square, Somerville, Middlesex County, Massachusetts, 02143, United States", "category": "place", "type": "house", "latlong": "42.3778375,-71.09549625" }, "geometry": { "type": "Point", "coordinates": [ -71.09549625, 42.3778375 ] } },
{ "type": "Feature", "properties": { "Street Address": "17 CLARK ST", "City": "Somerville", "State": "MA", "Zip Code": "02143", "result_num": "0", "osm_id": "29787622", "display_name": "17;19, Clark Street, Union Square, Somerville, Middlesex County, Massachusetts, 02143, United States", "category": "building", "type": "yes", "latlong": "42.37808925,-71.0970078" }, "geometry": { "type": "Point", "coordinates": [ -71.0970078, 42.37808925 ] } },
{ "type": "Feature", "properties": { "Street Address": "16 CHETWYND RD", "City": "Somerville", "State": "MA", "Zip Code": "02143", "result_num": "0", "osm_id": "29518897", "display_name": "16, Chetwynd Road, Somerville, Middlesex County, Massachusetts, 02144, United States", "category": "building", "type": "yes", "latlong": "42.40805605,-71.12488137616197" }, "geometry": { "type": "Point", "coordinates": [ -71.124881376161966, 42.40805605 ] } },
{ "type": "Feature", "properties": { "Street Address": "1 PARTRIDGE AVE", "City": "Somerville", "State": "MA", "Zip Code": "02143", "result_num": "0", "osm_id": "29590166", "display_name": "1, Partridge Avenue, Magoun Square, Somerville, Middlesex County, Massachusetts, 02143, United States", "category": "building", "type": "detached", "latlong": "42.3927026,-71.1042545997706" }, "geometry": { "type": "Point", "coordinates": [ -71.104254599770599, 42.3927026 ] } },
{ "type": "Feature", "properties": { "Street Address": "1 CAMERON AVE", "City": "Somerville", "State": "MA", "Zip Code": "02143", "result_num": "0", "osm_id": "29681984", "display_name": "1, Cameron Avenue, West Somerville, Somerville, Middlesex County, Massachusetts, 02140, United States", "category": "building", "type": "apartments", "latlong": "42.401087950000004,-71.12644215099098" }, "geometry": { "type": "Point", "coordinates": [ -71.126442150990982, 42.40108795 ] } },
{ "type": "Feature", "properties": { "Street Address": "28 FLINT ST", "City": "Somerville", "State": "MA", "Zip Code": "02143", "result_num": "0", "osm_id": "29745943", "display_name": "28, Flint Street, East Somerville, Somerville, Middlesex County, Massachusetts, 02145, United States", "category": "building", "type": "yes", "latlong": "42.3840137,-71.08637102999268" }, "geometry": { "type": "Point", "coordinates": [ -71.086371029992677, 42.3840137 ] } },
{ "type": "Feature", "properties": { "Street Address": "38 MEACHAM ST", "City": "Somerville", "State": "MA", "Zip Code": "02143", "result_num": "0", "osm_id": "9429873", "display_name": "38, Meacham Street, Winter Hill, Somerville, Middlesex County, Massachusetts, 02145, United States", "category": "place", "type": "house", "latlong": "42.39792823529412,-71.09734576470588" }, "geometry": { "type": "Point", "coordinates": [ -71.097345764705878, 42.397928235294117 ] } },
{ "type": "Feature", "properties": { "Street Address": "1 ARLINGTON ST", "City": "Somerville", "State": "MA", "Zip Code": "02143", "result_num": "0", "osm_id": "29740221", "display_name": "Charles Williams Jr. House, 1, Arlington Street, East Somerville, Somerville, Middlesex County, Massachusetts, 02145, United States", "category": "historic", "type": "house", "latlong": "42.3859284,-71.08143504017205" }, "geometry": { "type": "Point", "coordinates": [ -71.081435040172053, 42.3859284 ] } },
{ "type": "Feature", "properties": { "Street Address": "26 THORNDIKE ST", "City": "Somerville", "State": "MA", "Zip Code": "02143", "result_num": "0", "osm_id": "29588560", "display_name": "26, Thorndike Street, West Somerville, Somerville, Middlesex County, Massachusetts, 02140, United States", "category": "building", "type": "yes", "latlong": "42.397667049999995,-71.12491706110133" }, "geometry": { "type": "Point", "coordinates": [ -71.124917061101328, 42.39766705 ] } },
{ "type": "Feature", "properties": { "Street Address": "353 HIGHLAND AVE", "City": "Somerville", "State": "MA", "Zip Code": "02143", "result_num": "0", "osm_id": "29825416", "display_name": "353, Highland Avenue, Spring Hill, Somerville, Middlesex County, Massachusetts, 02144, United States", "category": "building", "type": "yes", "latlong": "42.394404449999996,-71.11706676993042" }, "geometry": { "type": "Point", "coordinates": [ -71.117066769930418, 42.39440445 ] } },
{ "type": "Feature", "properties": { "Street Address": "96 CONWELL AVE", "City": "Somerville", "State": "MA", "Zip Code": "02143", "result_num": "0", "osm_id": "29936502", "display_name": "96, Conwell Avenue, Somerville, Middlesex County, Massachusetts, 02144, United States", "category": "building", "type": "yes", "latlong": "42.408196000000004,-71.12904298568498" }, "geometry": { "type": "Point", "coordinates": [ -71.129042985684976, 42.408196 ] } },
{ "type": "Feature", "properties": { "Street Address": "26 HALL ST", "City": "Somerville", "State": "MA", "Zip Code": "02143", "result_num": "0", "osm_id": "29591094", "display_name": "26;28, Hall Street, Spring Hill, Somerville, Middlesex County, Massachusetts, 02144, United States", "category": "building", "type": "yes", "latlong": "42.3916093,-71.11425363266565" }, "geometry": { "type": "Point", "coordinates": [ -71.114253632665651, 42.3916093 ] } },
{ "type": "Feature", "properties": { "Street Address": "36 ALLEN ST", "City": "Somerville", "State": "MA", "Zip Code": "02143", "result_num": "0", "osm_id": "9430095", "display_name": "36, Allen Street, Boynton Yards, Somerville, Middlesex County, Massachusetts, 02143, United States", "category": "place", "type": "house", "latlong": "42.37802114583333,-71.09305733333333" }, "geometry": { "type": "Point", "coordinates": [ -71.093057333333334, 42.37802114583333 ] } },
{ "type": "Feature", "properties": { "Street Address": "6 LINCOLN ST", "City": "Somerville", "State": "MA", "Zip Code": "02143", "result_num": "0", "osm_id": "29642426", "display_name": "6;6A, Lincoln Street, East Somerville, Somerville, Middlesex County, Massachusetts, 02145, United States", "category": "building", "type": "apartments", "latlong": "42.386439749999994,-71.08071924999999" }, "geometry": { "type": "Point", "coordinates": [ -71.080719249999987, 42.38643975 ] } },
{ "type": "Feature", "properties": { "Street Address": "6 ACADIA PK", "City": "Somerville", "State": "MA", "Zip Code": "02143", "result_num": "0", "osm_id": "29821212", "display_name": "6, Acadia Park, Wilson Square, Somerville, Middlesex County, Massachusetts, 02144, United States", "category": "building", "type": "apartments", "latlong": "42.3881186,-71.11752927119798" }, "geometry": { "type": "Point", "coordinates": [ -71.117529271197981, 42.3881186 ] } },
{ "type": "Feature", "properties": { "Street Address": "9 ACADIA PK", "City": "Somerville", "State": "MA", "Zip Code": "02143", "result_num": "0", "osm_id": "29824018", "display_name": "9, Acadia Park, Wilson Square, Somerville, Middlesex County, Massachusetts, 02144, United States", "category": "building", "type": "apartments", "latlong": "42.3879441,-71.1172005" }, "geometry": { "type": "Point", "coordinates": [ -71.1172005, 42.3879441 ] } },
{ "type": "Feature", "properties": { "Street Address": "113 GLEN ST", "City": "Somerville", "State": "MA", "Zip Code": "02143", "result_num": "0", "osm_id": "29520181", "display_name": "113, Glen Street, East Somerville, Somerville, Middlesex County, Massachusetts, 02145, United States", "category": "building", "type": "yes", "latlong": "42.38386865,-71.0870351445264" }, "geometry": { "type": "Point", "coordinates": [ -71.087035144526396, 42.38386865 ] } },
{ "type": "Feature", "properties": { "Street Address": "5 FRANKLIN ST", "City": "Somerville", "State": "MA", "Zip Code": "02143", "result_num": "0", "osm_id": "29787253", "display_name": "5, Franklin Street, East Somerville, Somerville, Middlesex County, Massachusetts, 02145, United States", "category": "building", "type": "house", "latlong": "42.3868079,-71.0828779177577" }, "geometry": { "type": "Point", "coordinates": [ -71.082877917757699, 42.3868079 ] } },
{ "type": "Feature", "properties": { "Street Address": "33 OLIVER ST", "City": "Somerville", "State": "MA", "Zip Code": "02143", "result_num": "0", "osm_id": "29537715", "display_name": "33;35, Oliver Street, East Somerville, Somerville, Middlesex County, Massachusetts, 02145, United States", "category": "building", "type": "yes", "latlong": "42.38387505,-71.08723566042353" }, "geometry": { "type": "Point", "coordinates": [ -71.087235660423531, 42.38387505 ] } },
{ "type": "Feature", "properties": { "Street Address": "70 PEARL ST", "City": "Somerville", "State": "MA", "Zip Code": "02143", "result_num": "0", "osm_id": "29826702", "display_name": "70, Pearl Street, East Somerville, Somerville, Middlesex County, Massachusetts, 02145, United States", "category": "building", "type": "yes", "latlong": "42.384349400000005,-71.08411577130163" }, "geometry": { "type": "Point", "coordinates": [ -71.084115771301626, 42.3843494 ] } },
{ "type": "Feature", "properties": { "Street Address": "155 PERKINS ST", "City": "Somerville", "State": "MA", "Zip Code": "02143", "result_num": "0", "osm_id": "29822534", "display_name": "155;157, Perkins Street, East Somerville, Somerville, Middlesex County, Massachusetts, 02145, United States", "category": "building", "type": "apartments", "latlong": "42.38575025,-71.08318764389982" }, "geometry": { "type": "Point", "coordinates": [ -71.083187643899819, 42.38575025 ] } },
{ "type": "Feature", "properties": { "Street Address": "113 WASHINGTON ST", "City": "Somerville", "State": "MA", "Zip Code": "02143", "result_num": "0", "osm_id": "29746099", "display_name": "Buddy's Diner, 113, Washington Street, Brickbottom, Somerville, Middlesex County, Massachusetts, 02145, United States", "category": "amenity", "type": "restaurant", "latlong": "42.38136155,-71.08688093951923" }, "geometry": { "type": "Point", "coordinates": [ -71.086880939519233, 42.38136155 ] } },
{ "type": "Feature", "properties": { "Street Address": "34 RUSH ST", "City": "Somerville", "State": "MA", "Zip Code": "02143", "result_num": "0", "osm_id": "29642424", "display_name": "34, Rush Street, East Somerville, Somerville, Middlesex County, Massachusetts, 02145, United States", "category": "building", "type": "yes", "latlong": "42.386663549999994,-71.08589754763646" }, "geometry": { "type": "Point", "coordinates": [ -71.085897547636463, 42.38666355 ] } },
{ "type": "Feature", "properties": { "Street Address": "4 OTIS ST", "City": "Somerville", "State": "MA", "Zip Code": "02143", "result_num": "0", "osm_id": "29642409", "display_name": "4, Otis Street, East Somerville, Somerville, Middlesex County, Massachusetts, 02145, United States", "category": "building", "type": "yes", "latlong": "42.38704735,-71.08740759678494" }, "geometry": { "type": "Point", "coordinates": [ -71.087407596784942, 42.38704735 ] } },
{ "type": "Feature", "properties": { "Street Address": "20 FRANKLIN AVE", "City": "Somerville", "State": "MA", "Zip Code": "02143", "result_num": "0", "osm_id": "29795109", "display_name": "20, Franklin Avenue, East Somerville, Somerville, Middlesex County, Massachusetts, 02145, United States", "category": "building", "type": "detached", "latlong": "42.3823264,-71.08508660000001" }, "geometry": { "type": "Point", "coordinates": [ -71.085086600000011, 42.3823264 ] } },
{ "type": "Feature", "properties": { "Street Address": "22 FRANKLIN AVE", "City": "Somerville", "State": "MA", "Zip Code": "02143", "result_num": "0", "osm_id": "29718610", "display_name": "22, Franklin Avenue, East Somerville, Somerville, Middlesex County, Massachusetts, 02145, United States", "category": "building", "type": "detached", "latlong": "42.3824306,-71.08507877585551" }, "geometry": { "type": "Point", "coordinates": [ -71.085078775855507, 42.3824306 ] } },
{ "type": "Feature", "properties": { "Street Address": "62 FRANKLIN ST", "City": "Somerville", "State": "MA", "Zip Code": "02143", "result_num": "0", "osm_id": "29537764", "display_name": "62, Franklin Street, East Somerville, Somerville, Middlesex County, Massachusetts, 02145, United States", "category": "building", "type": "yes", "latlong": "42.3830386,-71.08507664999999" }, "geometry": { "type": "Point", "coordinates": [ -71.08507665, 42.3830386 ] } },
{ "type": "Feature", "properties": { "Street Address": "98 PEARL ST", "City": "Somerville", "State": "MA", "Zip Code": "02143", "result_num": "0", "osm_id": "29537673", "display_name": "98, Pearl Street, East Somerville, Somerville, Middlesex County, Massachusetts, 02145, United States", "category": "building", "type": "yes", "latlong": "42.384922450000005,-71.08590724999999" }, "geometry": { "type": "Point", "coordinates": [ -71.08590725, 42.38492245 ] } },
{ "type": "Feature", "properties": { "Street Address": "161 BROADWAY", "City": "Somerville", "State": "MA", "Zip Code": "02143", "result_num": "0", "osm_id": "29785443", "display_name": "161, Broadway, East Somerville, Somerville, Middlesex County, Massachusetts, 02145, United States", "category": "building", "type": "yes", "latlong": "42.388802299999995,-71.085255254281" }, "geometry": { "type": "Point", "coordinates": [ -71.085255254280995, 42.3888023 ] } },
{ "type": "Feature", "properties": { "Street Address": "13 FRANKLIN AVE", "City": "Somerville", "State": "MA", "Zip Code": "02143", "result_num": "0", "osm_id": "29520300", "display_name": "13, Franklin Avenue, East Somerville, Somerville, Middlesex County, Massachusetts, 02145, United States", "category": "building", "type": "yes", "latlong": "42.382102950000004,-71.08485199990385" }, "geometry": { "type": "Point", "coordinates": [ -71.084851999903847, 42.38210295 ] } },
{ "type": "Feature", "properties": { "Street Address": "22 LELAND ST", "City": "Somerville", "State": "MA", "Zip Code": "02143", "result_num": "0", "osm_id": "29820681", "display_name": "20;20-22;22, Leland Street, Union Square, Somerville, Middlesex County, Massachusetts, 02143, United States", "category": "building", "type": "apartments", "latlong": "42.3799336,-71.10266127137461" }, "geometry": { "type": "Point", "coordinates": [ -71.102661271374615, 42.3799336 ] } },
{ "type": "Feature", "properties": { "Street Address": "373 ALEWIFE BROOK PKWY", "City": "Somerville", "State": "MA", "Zip Code": "02143", "result_num": "0", "osm_id": "29729779", "display_name": "373, Alewife Brook Parkway, Somerville, Middlesex County, Massachusetts, 02474, United States", "category": "building", "type": "yes", "latlong": "42.41296065,-71.1308760664296" }, "geometry": { "type": "Point", "coordinates": [ -71.130876066429593, 42.41296065 ] } },
{ "type": "Feature", "properties": { "Street Address": "16 WALDO AVE", "City": "Somerville", "State": "MA", "Zip Code": "02143", "result_num": "0", "osm_id": "29532817", "display_name": "16, Waldo Avenue, Union Square, Somerville, Middlesex County, Massachusetts, 02143, United States", "category": "building", "type": "apartments", "latlong": "42.376799,-71.10372445924986" }, "geometry": { "type": "Point", "coordinates": [ -71.103724459249861, 42.376799 ] } },
{ "type": "Feature", "properties": { "Street Address": "5 ROSE ST", "City": "Somerville", "State": "MA", "Zip Code": "02143", "result_num": "0", "osm_id": "29515218", "display_name": "5;7, Rose Street, Union Square, Somerville, Middlesex County, Massachusetts, 02143, United States", "category": "building", "type": "yes", "latlong": "42.378834100000006,-71.1030138" }, "geometry": { "type": "Point", "coordinates": [ -71.1030138, 42.3788341 ] } },
{ "type": "Feature", "properties": { "Street Address": "13B AVON PL", "City": "Somerville", "State": "MA", "Zip Code": "02143", "result_num": "0", "osm_id": "9429976", "display_name": "Avon Place, Prospect Hill, Somerville, Middlesex County, Massachusetts, 02145, United States", "category": "highway", "type": "residential", "latlong": "42.3834156,-71.090229" }, "geometry": { "type": "Point", "coordinates": [ -71.090229, 42.3834156 ] } },
{ "type": "Feature", "properties": { "Street Address": "25 BAILEY ST", "City": "Somerville", "State": "MA", "Zip Code": "02143", "result_num": "0", "osm_id": "29935690", "display_name": "25;27, Bailey Street, Somerville, Middlesex County, Massachusetts, 02144, United States", "category": "building", "type": "yes", "latlong": "42.40970525,-71.12818509514253" }, "geometry": { "type": "Point", "coordinates": [ -71.128185095142527, 42.40970525 ] } },
{ "type": "Feature", "properties": { "Street Address": "200 MCGRATH HWY", "City": "Somerville", "State": "MA", "Zip Code": "02143", "result_num": "0", "osm_id": "591294841", "display_name": "McGrath Highway, Prospect Hill, Somerville, Middlesex County, Massachusetts, 02143, United States", "category": "highway", "type": "secondary", "latlong": "42.3821993,-71.0903642" }, "geometry": { "type": "Point", "coordinates": [ -71.0903642, 42.3821993 ] } },
{ "type": "Feature", "properties": { "Street Address": "18 BONAIR ST", "City": "Somerville", "State": "MA", "Zip Code": "02143", "result_num": "0", "osm_id": "9428795", "display_name": "18, Bonair Street, East Somerville, Somerville, Middlesex County, Massachusetts, 02145, United States", "category": "place", "type": "house", "latlong": "42.387876,-71.087774" }, "geometry": { "type": "Point", "coordinates": [ -71.087774, 42.387876 ] } },
{ "type": "Feature", "properties": { "Street Address": "7 MOUNTAIN AVE", "City": "Somerville", "State": "MA", "Zip Code": "02143", "result_num": "0", "osm_id": "29635139", "display_name": "7, Mountain Avenue, Spring Hill, Somerville, Middlesex County, Massachusetts, 02144, United States", "category": "building", "type": "yes", "latlong": "42.39003285,-71.11165588514345" }, "geometry": { "type": "Point", "coordinates": [ -71.111655885143449, 42.39003285 ] } },
{ "type": "Feature", "properties": { "Street Address": "33 RAYMOND AVE", "City": "Somerville", "State": "MA", "Zip Code": "02143", "result_num": "0", "osm_id": "29641935", "display_name": "31;33, Raymond Avenue, Somerville, Middlesex County, Massachusetts, 02144, United States", "category": "building", "type": "yes", "latlong": "42.40694015,-71.1266784488065" }, "geometry": { "type": "Point", "coordinates": [ -71.126678448806501, 42.40694015 ] } },
{ "type": "Feature", "properties": { "Street Address": "36 NASHUA ST", "City": "Somerville", "State": "MA", "Zip Code": "02143", "result_num": "0", "osm_id": "29723609", "display_name": "36, Nashua Street, Magoun Square, Somerville, Middlesex County, Massachusetts, 02143, United States", "category": "building", "type": "yes", "latlong": "42.39425985,-71.10615505" }, "geometry": { "type": "Point", "coordinates": [ -71.10615505, 42.39425985 ] } },
{ "type": "Feature", "properties": { "Street Address": "29 JAQUES ST", "City": "Somerville", "State": "MA", "Zip Code": "02143", "result_num": "0", "osm_id": "29937539", "display_name": "29, Jaques Street, Ten Hills, Somerville, Middlesex County, Massachusetts, 02145, United States", "category": "building", "type": "yes", "latlong": "42.3934218,-71.09044456730453" }, "geometry": { "type": "Point", "coordinates": [ -71.09044456730453, 42.3934218 ] } },
{ "type": "Feature", "properties": { "Street Address": "67 PEARL ST", "City": "Somerville", "State": "MA", "Zip Code": "02143", "result_num": "0", "osm_id": "29932687", "display_name": "65;67, Pearl Street, East Somerville, Somerville, Middlesex County, Massachusetts, 02145, United States", "category": "building", "type": "apartments", "latlong": "42.3845843,-71.08379837711124" }, "geometry": { "type": "Point", "coordinates": [ -71.083798377111236, 42.3845843 ] } },
{ "type": "Feature", "properties": { "Street Address": "373 ALEWIFE BROOK PKWY", "City": "Somerville", "State": "MA", "Zip Code": "02143", "result_num": "0", "osm_id": "29729779", "display_name": "373, Alewife Brook Parkway, Somerville, Middlesex County, Massachusetts, 02474, United States", "category": "building", "type": "yes", "latlong": "42.41296065,-71.1308760664296" }, "geometry": { "type": "Point", "coordinates": [ -71.130876066429593, 42.41296065 ] } },
{ "type": "Feature", "properties": { "Street Address": "61 PEARL ST", "City": "Somerville", "State": "MA", "Zip Code": "02143", "result_num": "0", "osm_id": "29642508", "display_name": "61, Pearl Street, East Somerville, Somerville, Middlesex County, Massachusetts, 02145, United States", "category": "building", "type": "apartments", "latlong": "42.38457,-71.08362623223906" }, "geometry": { "type": "Point", "coordinates": [ -71.083626232239055, 42.38457 ] } },
{ "type": "Feature", "properties": { "Street Address": "8 CROSS ST EAST", "City": "Somerville", "State": "MA", "Zip Code": "02143", "result_num": "0", "osm_id": "9429316", "display_name": "8, Cross Street East, East Somerville, Somerville, Middlesex County, Massachusetts, 02145, United States", "category": "place", "type": "house", "latlong": "42.38897752854676,-71.08583613031081" }, "geometry": { "type": "Point", "coordinates": [ -71.08583613031081, 42.388977528546761 ] } },
{ "type": "Feature", "properties": { "Street Address": "10 CROSS ST EAST", "City": "Somerville", "State": "MA", "Zip Code": "02143", "result_num": "0", "osm_id": "9429316", "display_name": "10, Cross Street East, East Somerville, Somerville, Middlesex County, Massachusetts, 02145, United States", "category": "place", "type": "house", "latlong": "42.389010038062345,-71.08580717374774" }, "geometry": { "type": "Point", "coordinates": [ -71.085807173747739, 42.389010038062345 ] } },
{ "type": "Feature", "properties": { "Street Address": "74 GRANT ST", "City": "Somerville", "State": "MA", "Zip Code": "02143", "result_num": "0", "osm_id": "29937987", "display_name": "72;74, Grant Street, Ten Hills, Somerville, Middlesex County, Massachusetts, 02145, United States", "category": "building", "type": "yes", "latlong": "42.3937237,-71.0891931" }, "geometry": { "type": "Point", "coordinates": [ -71.0891931, 42.3937237 ] } },
{ "type": "Feature", "properties": { "Street Address": "114 Glen St", "City": "Somerville", "State": "MA", "Zip Code": "02143", "result_num": "0", "osm_id": "29940702", "display_name": "112;114;116;118, Glen Street, East Somerville, Somerville, Middlesex County, Massachusetts, 02145, United States", "category": "building", "type": "yes", "latlong": "42.38375635,-71.08666529999999" }, "geometry": { "type": "Point", "coordinates": [ -71.0866653, 42.38375635 ] } },
{ "type": "Feature", "properties": { "Street Address": "59 WATERHOUSE ST", "City": "Somerville", "State": "MA", "Zip Code": "02143", "result_num": "0", "osm_id": "29686103", "display_name": "57;59, Waterhouse Street, Somerville, Middlesex County, Massachusetts, 02474, United States", "category": "building", "type": "yes", "latlong": "42.40441815,-71.13362804655685" }, "geometry": { "type": "Point", "coordinates": [ -71.133628046556851, 42.40441815 ] } },
{ "type": "Feature", "properties": { "Street Address": "44 MICHIGAN AVE", "City": "Somerville", "State": "MA", "Zip Code": "02143", "result_num": "0", "osm_id": "29719206", "display_name": "42;44, Michigan Avenue, East Somerville, Somerville, Middlesex County, Massachusetts, 02145, United States", "category": "building", "type": "yes", "latlong": "42.3890003,-71.08310942364172" }, "geometry": { "type": "Point", "coordinates": [ -71.083109423641716, 42.3890003 ] } },
{ "type": "Feature", "properties": { "Street Address": "49 FRANKLIN ST", "City": "Somerville", "State": "MA", "Zip Code": "02143", "result_num": "0", "osm_id": "29642556", "display_name": "49, Franklin Street, East Somerville, Somerville, Middlesex County, Massachusetts, 02145, United States", "category": "building", "type": "yes", "latlong": "42.38391285,-71.08496324999999" }, "geometry": { "type": "Point", "coordinates": [ -71.084963249999987, 42.38391285 ] } },
{ "type": "Feature", "properties": { "Street Address": "88 GLEN ST", "City": "Somerville", "State": "MA", "Zip Code": "02143", "result_num": "0", "osm_id": "29719652", "display_name": "88, Glen Street, East Somerville, Somerville, Middlesex County, Massachusetts, 02145, United States", "category": "building", "type": "yes", "latlong": "42.3847552,-71.08612496168831" }, "geometry": { "type": "Point", "coordinates": [ -71.086124961688313, 42.3847552 ] } },
{ "type": "Feature", "properties": { "Street Address": "8 ROGERS AVE", "City": "Somerville", "State": "MA", "Zip Code": "02143", "result_num": "0", "osm_id": "29827341", "display_name": "8;10, Rogers Avenue, Ball Square, Somerville, Middlesex County, Massachusetts, 02144, United States", "category": "building", "type": "yes", "latlong": "42.39577855,-71.114173350572" }, "geometry": { "type": "Point", "coordinates": [ -71.114173350572003, 42.39577855 ] } },
{ "type": "Feature", "properties": { "Street Address": "86 GLEN ST", "City": "Somerville", "State": "MA", "Zip Code": "02143", "result_num": "0", "osm_id": "29741574", "display_name": "86, Glen Street, East Somerville, Somerville, Middlesex County, Massachusetts, 02145, United States", "category": "building", "type": "yes", "latlong": "42.38483865,-71.08607625" }, "geometry": { "type": "Point", "coordinates": [ -71.08607625, 42.38483865 ] } },
{ "type": "Feature", "properties": { "Street Address": "15 CARLTON ST", "City": "Somerville", "State": "MA", "Zip Code": "02143", "result_num": "0", "osm_id": "29826416", "display_name": "15, Carlton Street, Union Square, Somerville, Middlesex County, Massachusetts, 02143, United States", "category": "building", "type": "yes", "latlong": "42.38074005,-71.10026781260865" }, "geometry": { "type": "Point", "coordinates": [ -71.100267812608649, 42.38074005 ] } },
{ "type": "Feature", "properties": { "Street Address": "102 PEARL ST", "City": "Somerville", "State": "MA", "Zip Code": "02143", "result_num": "0", "osm_id": "29520058", "display_name": "102, Pearl Street, East Somerville, Somerville, Middlesex County, Massachusetts, 02145, United States", "category": "building", "type": "yes", "latlong": "42.3850608,-71.08633961904626" }, "geometry": { "type": "Point", "coordinates": [ -71.086339619046257, 42.3850608 ] } },